[{"NAME": "CALSPHERE 1", "CATALOGNUMBER": "00900", "CLASS": "U", "LAUNCHYEAR": "64", "LAUNCHNUMBER": "063", "LAUNCHPIECE": "C  ", "X": -6619873.480759056, "Y": 3017888.970973024, "Z": -1266277.2577511778, "XS": -6.619873480759057, "YS": 3.0178889709730243, "ZS": -1.2662772577511778, "DIST": 7.384702894218256, "LONG": 155.49255555555555, "LAT": -9.92975, "ELEVATION": 1007197.1875, "TYPE": "Satellite"}, {"NAME": "CALSPHERE 2", "CATALOGNUMBER": "00902", "CLASS": "U", "LAUNCHYEAR": "64", "LAUNCHNUMBER": "063", "LAUNCHPIECE": "E  ", "X": 5824387.844797731, "Y": -2017077.5148800595, "Z": -4197048.664275802, "XS": 5.824387844797731, "YS": -2.0170775148800595, "ZS": -4.197048664275802, "DIST": 7.457031108823509, "LONG": -19.101777777777777, "LAT": -34.404916666666665, "ELEVATION": 1085687.125, "TYPE": "Satellite"}, {"NAME": "LCS 1", "CATALOGNUMBER": "01361", "CLASS": "U", "LAUNCHYEAR": "65", "LAUNCHNUMBER": "034", "LAUNCHPIECE": "C  ", "X": -7766234.310406073, "Y": 637151.243959433, "Z": -4832843.429801455, "XS": -7.766234310406073, "YS": 0.637151243959433, "ZS": -4.832843429801454, "DIST": 9.169336545725795, "LONG": 175.3098888888889, "LAT": -31.92727777777778, "ELEVATION": 2797153.0, "TYPE": "Satellite"}, {"NAME": "TEMPSAT 1", "CATALOGNUMBER": "01512", "CLASS": "U", "LAUNCHYEAR": "65", "LAUNCHNUMBER": "065", "LAUNCHPIECE": "E  ", "X": 581472.075748613, "Y": -455721.61450067995, "Z": 7418619.435734646, "XS": 0.581472075748613, "YS": -0.45572161450067994, "ZS": 7.418619435734646, "DIST": 7.455313963681097, "LONG": -38.08713888888889, "LAT": 84.34527777777777, "ELEVATION": 1098352.5, "TYPE": "Satellite"}, {"NAME": "CALSPHERE 4A", "CATALOGNUMBER": "01520", "CLASS": "U", "LAUNCHYEAR": "65", "LAUNCHNUMBER": "065", "LAUNCHPIECE": "H  ", "X": -2936658.9433957306, "Y": -4259999.687063251, "Z": -5480480.201455914, "XS": -2.9366589433957304, "YS": -4.25999968706325, "ZS": -5.480480201455914, "DIST": 7.537056874016234, "LONG": -124.58069444444443, "LAT": -46.809250000000006, "ELEVATION": 1170247.875, "TYPE": "Satellite"}, {"NAME": "OPS 5712 (P/L 160)", "CATALOGNUMBER": "02826", "CLASS": "U", "LAUNCHYEAR": "67", "LAUNCHNUMBER": "053", "LAUNCHPIECE": "A  ", "X": -4635085.631613716, "Y": -660562.2455126685, "Z": 5311351.170958288, "XS": -4.635085631613715, "YS": -0.6605622455126685, "ZS": 5.311351170958288, "DIST": 7.0803116141755105, "LONG": -171.88919444444446, "LAT": 48.775638888888885, "ELEVATION": 714231.5, "TYPE": "Satellite"}, {"NAME": "LES-5", "CATALOGNUMBER": "02866", "CLASS": "U", "LAUNCHYEAR": "67", "LAUNCHNUMBER": "066", "LAUNCHPIECE": "E  ", "X": -10720200.849391568, "Y": 38375547.233677275, "Z": 46852.13486807286, "XS": -10.720200849391569, "YS": 38.375547233677274, "ZS": 0.04685213486807286, "DIST": 39.84479297045014, "LONG": 105.60769444444443, "LAT": 0.06744444444444445, "ELEVATION": 33466656.0, "TYPE": "Satellite"}, {"NAME": "SURCAL 159", "CATALOGNUMBER": "02872", "CLASS": "U", "LAUNCHYEAR": "67", "LAUNCHNUMBER": "053", "LAUNCHPIECE": "F  ", "X": 1799124.7886691103, "Y": 5615513.051142974, "Z": -4270242.059439409, "XS": 1.7991247886691102, "YS": 5.615513051142973, "ZS": -4.270242059439409, "DIST": 7.280508504147637, "LONG": 72.23533333333333, "LAT": -36.07130555555556, "ELEVATION": 909748.5, "TYPE": "Satellite"}, {"NAME": "OPS 5712 (P/L 153)", "CATALOGNUMBER": "02874", "CLASS": "U", "LAUNCHYEAR": "67", "LAUNCHNUMBER": "053", "LAUNCHPIECE": "H  ", "X": -5159145.114818925, "Y": 3321819.7531982954, "Z": 3927003.069831539, "XS": -5.159145114818925, "YS": 3.3218197531982954, "ZS": 3.927003069831539, "DIST": 7.285095599850745, "LONG": 147.22372222222222, "LAT": 32.77172222222222, "ELEVATION": 913190.875, "TYPE": "Satellite"}, {"NAME": "SURCAL 150B", "CATALOGNUMBER": "02909", "CLASS": "U", "LAUNCHYEAR": "67", "LAUNCHNUMBER": "053", "LAUNCHPIECE": "J  ", "X": 4635263.834966123, "Y": -4014837.4898653342, "Z": -3453979.7086650343, "XS": 4.635263834966123, "YS": -4.014837489865334, "ZS": -3.453979708665034, "DIST": 7.038079760676403, "LONG": -40.8975, "LAT": -29.5395, "ELEVATION": 665110.3125, "TYPE": "Satellite"}, {"NAME": "OPS 3811 (DSP 2)", "CATALOGNUMBER": "05204", "CLASS": "U", "LAUNCHYEAR": "71", "LAUNCHNUMBER": "039", "LAUNCHPIECE": "A  ", "X": 21612093.831576504, "Y": -36886359.25145282, "Z": 1727411.5185806798, "XS": 21.612093831576505, "YS": -36.88635925145282, "ZS": 1.7274115185806798, "DIST": 42.78633016708293, "LONG": -59.63352777777778, "LAT": 2.3161388888888887, "ELEVATION": 36408228.0, "TYPE": "Satellite"}, {"NAME": "RIGIDSPHERE 2 (LCS 4)", "CATALOGNUMBER": "05398", "CLASS": "U", "LAUNCHYEAR": "71", "LAUNCHNUMBER": "067", "LAUNCHPIECE": "E  ", "X": 3051283.5739832693, "Y": -455908.4972479144, "Z": 6471798.965897967, "XS": 3.051283573983269, "YS": -0.4559084972479144, "ZS": 6.4717989658979675, "DIST": 7.169544327341939, "LONG": -8.498, "LAT": 64.64491666666667, "ELEVATION": 808846.0, "TYPE": "Satellite"}, {"NAME": "OSCAR 7 (AO-7)", "CATALOGNUMBER": "07530", "CLASS": "U", "LAUNCHYEAR": "74", "LAUNCHNUMBER": "089", "LAUNCHPIECE": "B  ", "X": 5357561.449439512, "Y": 2752033.672640228, "Z": 4986831.365074, "XS": 5.357561449439512, "YS": 2.7520336726402284, "ZS": 4.986831365074, "DIST": 7.819567832275124, "LONG": 27.188333333333333, "LAT": 39.77736111111111, "ELEVATION": 1450147.75, "TYPE": "Satellite"}, {"NAME": "STARLETTE", "CATALOGNUMBER": "07646", "CLASS": "U", "LAUNCHYEAR": "75", "LAUNCHNUMBER": "010", "LAUNCHPIECE": "A  ", "X": 2257754.1947018825, "Y": -6796277.091535052, "Z": -1470750.6192716537, "XS": 2.2577541947018824, "YS": -6.796277091535052, "ZS": -1.4707506192716537, "DIST": 7.310946839685408, "LONG": -71.62327777777779, "LAT": -11.67175, "ELEVATION": 933678.75, "TYPE": "Satellite"}, {"NAME": "LAGEOS 1", "CATALOGNUMBER": "08820", "CLASS": "U", "LAUNCHYEAR": "76", "LAUNCHNUMBER": "039", "LAUNCHPIECE": "A  ", "X": -1201205.208424087, "Y": 7165591.508413425, "Z": 9885835.271600533, "XS": -1.201205208424087, "YS": 7.165591508413424, "ZS": 9.885835271600532, "DIST": 12.268591387580438, "LONG": 99.51630555555556, "LAT": 53.781305555555555, "ELEVATION": 5904348.0, "TYPE": "Satellite"}, {"NAME": "OPS 8701 (DSP 10)", "CATALOGNUMBER": "13086", "CLASS": "U", "LAUNCHYEAR": "82", "LAUNCHNUMBER": "019", "LAUNCHPIECE": "A  ", "X": -42102733.57242756, "Y": 613300.9380445374, "Z": -7373867.327624716, "XS": -42.10273357242756, "YS": 0.6133009380445374, "ZS": -7.3738673276247155, "DIST": 42.747985118328515, "LONG": 179.16544444444446, "LAT": -9.942722222222221, "ELEVATION": 36370484.0, "TYPE": "Satellite"}, {"NAME": "PHASE 3B (AO-10)", "CATALOGNUMBER": "14129", "CLASS": "U", "LAUNCHYEAR": "83", "LAUNCHNUMBER": "058", "LAUNCHPIECE": "B  ", "X": 7866928.046852445, "Y": 14218215.799575342, "Z": 7486958.381011811, "XS": 7.866928046852445, "YS": 14.218215799575342, "ZS": 7.486958381011811, "DIST": 17.89136001584705, "LONG": 61.04427777777778, "LAT": 24.789972222222225, "ELEVATION": 11516970.0, "TYPE": "Satellite"}, {"NAME": "UOSAT 2 (UO-11)", "CATALOGNUMBER": "14781", "CLASS": "U", "LAUNCHYEAR": "84", "LAUNCHNUMBER": "021", "LAUNCHPIECE": "B  ", "X": -5689462.83092193, "Y": 343680.1724936167, "Z": 4049742.68515195, "XS": -5.68946283092193, "YS": 0.3436801724936167, "ZS": 4.04974268515195, "DIST": 6.992032550077921, "LONG": 176.54316666666668, "LAT": 35.55958333333333, "ELEVATION": 621090.5625, "TYPE": "Satellite"}, {"NAME": "AJISAI (EGS)", "CATALOGNUMBER": "16908", "CLASS": "U", "LAUNCHYEAR": "86", "LAUNCHNUMBER": "061", "LAUNCHPIECE": "A  ", "X": 3930413.0010096617, "Y": -3530942.329798619, "Z": 5820494.94472696, "XS": 3.930413001009662, "YS": -3.5309423297986187, "ZS": 5.82049494472696, "DIST": 7.860907167525995, "LONG": -41.935388888888895, "LAT": 47.92361111111111, "ELEVATION": 1494514.125, "TYPE": "Satellite"}, {"NAME": "TDRS 3", "CATALOGNUMBER": "19548", "CLASS": "U", "LAUNCHYEAR": "88", "LAUNCHNUMBER": "091", "LAUNCHPIECE": "B  ", "X": 27472438.73397716, "Y": -31327599.280907366, "Z": 6039982.248682266, "XS": 27.47243873397716, "YS": -31.327599280907368, "ZS": 6.039982248682266, "DIST": 42.102669182150834, "LONG": -48.75116666666666, "LAT": 8.256277777777777, "ELEVATION": 35724972.0, "TYPE": "Satellite"}, {"NAME": "COSMOS 1989 (ETALON 1)", "CATALOGNUMBER": "19751", "CLASS": "U", "LAUNCHYEAR": "89", "LAUNCHNUMBER": "001", "LAUNCHPIECE": "C  ", "X": 21392021.485335246, "Y": 5763666.54905672, "Z": -12686588.602258516, "XS": 21.392021485335246, "YS": 5.76366654905672, "ZS": -12.686588602258517, "DIST": 25.530138379584155, "LONG": 15.079166666666666, "LAT": -29.838222222222225, "ELEVATION": 19157282.0, "TYPE": "Satellite"}, {"NAME": "COSMOS 2024 (ETALON 2)", "CATALOGNUMBER": "20026", "CLASS": "U", "LAUNCHYEAR": "89", "LAUNCHNUMBER": "039", "LAUNCHPIECE": "C  ", "X": -7570664.154294514, "Y": -18882304.389743507, "Z": -15395766.351485606, "XS": -7.570664154294514, "YS": -18.882304389743506, "ZS": -15.395766351485607, "DIST": 25.512467468937285, "LONG": -111.84780555555555, "LAT": -37.164361111111106, "ELEVATION": 19142118.0, "TYPE": "Satellite"}, {"NAME": "FLTSATCOM 8 (USA 46)", "CATALOGNUMBER": "20253", "CLASS": "U", "LAUNCHYEAR": "89", "LAUNCHNUMBER": "077", "LAUNCHPIECE": "A  ", "X": -24176880.700288434, "Y": 34456224.6771501, "Z": -2238497.6615638956, "XS": -24.176880700288432, "YS": 34.456224677150104, "ZS": -2.238497661563896, "DIST": 42.15167673033962, "LONG": 125.05616666666667, "LAT": -3.04725, "ELEVATION": 35773600.0, "TYPE": "Satellite"}, {"NAME": "LUSAT (LO-19)", "CATALOGNUMBER": "20442", "CLASS": "U", "LAUNCHYEAR": "90", "LAUNCHNUMBER": "005", "LAUNCHPIECE": "G  ", "X": 6252480.141075548, "Y": 1445353.9502038483, "Z": 3156354.2151845, "XS": 6.252480141075548, "YS": 1.4453539502038484, "ZS": 3.1563542151845, "DIST": 7.151582194705374, "LONG": 13.01613888888889, "LAT": 26.326138888888888, "ELEVATION": 777625.1875, "TYPE": "Satellite"}, {"NAME": "HST", "CATALOGNUMBER": "20580", "CLASS": "U", "LAUNCHYEAR": "90", "LAUNCHNUMBER": "037", "LAUNCHPIECE": "B  ", "X": -5135171.2016084585, "Y": 4610200.147235695, "Z": -39178.94380513832, "XS": -5.1351712016084585, "YS": 4.6102001472356955, "ZS": -0.03917894380513832, "DIST": 6.901120463884004, "LONG": 138.08347222222224, "LAT": -0.32730555555555557, "ELEVATION": 522984.15625, "TYPE": "Satellite"}, {"NAME": "SKYNET 4C", "CATALOGNUMBER": "20776", "CLASS": "U", "LAUNCHYEAR": "90", "LAUNCHNUMBER": "079", "LAUNCHPIECE": "A  ", "X": 34123242.62872816, "Y": 22976459.1416061, "Z": 9247646.35410604, "XS": 34.12324262872816, "YS": 22.9764591416061, "ZS": 9.24764635410604, "DIST": 42.16434898436778, "LONG": 33.95386111111112, "LAT": 12.68175, "ELEVATION": 35787240.0, "TYPE": "Satellite"}, {"NAME": "USA 65 (DSP 15)", "CATALOGNUMBER": "20929", "CLASS": "U", "LAUNCHYEAR": "90", "LAUNCHNUMBER": "095", "LAUNCHPIECE": "A  ", "X": 7364434.443456803, "Y": 41930760.36758297, "Z": 3105047.539170375, "XS": 7.364434443456804, "YS": 41.93076036758297, "ZS": 3.105047539170375, "DIST": 42.68565192071157, "LONG": 80.03855555555555, "LAT": 4.175666666666667, "ELEVATION": 36307628.0, "TYPE": "Satellite"}, {"NAME": "TDRS 5", "CATALOGNUMBER": "21639", "CLASS": "U", "LAUNCHYEAR": "91", "LAUNCHNUMBER": "054", "LAUNCHPIECE": "B  ", "X": -39792539.58826596, "Y": -9637284.707181264, "Z": -10082114.61064128, "XS": -39.79253958826596, "YS": -9.637284707181264, "ZS": -10.08211461064128, "DIST": 42.16601117527113, "LONG": -166.38577777777778, "LAT": -13.847222222222221, "ELEVATION": 35789096.0, "TYPE": "Satellite"}, {"NAME": "USA 75 (DSP 16)", "CATALOGNUMBER": "21805", "CLASS": "U", "LAUNCHYEAR": "91", "LAUNCHNUMBER": "080", "LAUNCHPIECE": "B  ", "X": -21371879.605500054, "Y": -36169364.388369024, "Z": -6396826.104107392, "XS": -21.371879605500055, "YS": -36.169364388369026, "ZS": -6.396826104107392, "DIST": 42.495876768656, "LONG": -120.57813888888889, "LAT": -8.66611111111111, "ELEVATION": 36118224.0, "TYPE": "Satellite"}, {"NAME": "LAGEOS 2", "CATALOGNUMBER": "22195", "CLASS": "U", "LAUNCHYEAR": "92", "LAUNCHNUMBER": "070", "LAUNCHPIECE": "B  ", "X": -5255310.167489724, "Y": -7943555.2571439175, "Z": 7286154.387641549, "XS": -5.255310167489724, "YS": -7.943555257143918, "ZS": 7.286154387641549, "DIST": 11.9919306552518, "LONG": -123.48788888888889, "LAT": 37.51397222222222, "ELEVATION": 5621697.5, "TYPE": "Satellite"}, {"NAME": "TDRS 6", "CATALOGNUMBER": "22314", "CLASS": "U", "LAUNCHYEAR": "93", "LAUNCHNUMBER": "003", "LAUNCHPIECE": "B  ", "X": 29504991.77407092, "Y": -29864121.1234025, "Z": 4257090.691385822, "XS": 29.50499177407092, "YS": -29.864121123402498, "ZS": 4.257090691385822, "DIST": 42.196363483313725, "LONG": -45.346583333333335, "LAT": 5.796111111111111, "ELEVATION": 35818444.0, "TYPE": "Satellite"}, {"NAME": "SCD 1", "CATALOGNUMBER": "22490", "CLASS": "U", "LAUNCHYEAR": "93", "LAUNCHNUMBER": "009", "LAUNCHPIECE": "B  ", "X": 5224822.849632292, "Y": 4799868.100298482, "Z": -783353.7311106254, "XS": 5.224822849632292, "YS": 4.799868100298482, "ZS": -0.7833537311106255, "DIST": 7.138007471160814, "LONG": 42.57263888888889, "LAT": -6.338166666666666, "ELEVATION": 760129.125, "TYPE": "Satellite"}, {"NAME": "UFO 2 (USA 95)", "CATALOGNUMBER": "22787", "CLASS": "U", "LAUNCHYEAR": "93", "LAUNCHNUMBER": "056", "LAUNCHPIECE": "A  ", "X": 36211370.6332334, "Y": 19896374.423257172, "Z": 8424288.851061616, "XS": 36.2113706332334, "YS": 19.89637442325717, "ZS": 8.424288851061617, "DIST": 42.16749602447318, "LONG": 28.78663888888889, "LAT": 11.535555555555556, "ELEVATION": 35790212.0, "TYPE": "Satellite"}, {"NAME": "STELLA", "CATALOGNUMBER": "22824", "CLASS": "U", "LAUNCHYEAR": "93", "LAUNCHNUMBER": "061", "LAUNCHPIECE": "B  ", "X": 3076465.5029435954, "Y": 5847075.786510276, "Z": -2811325.75469816, "XS": 3.0764655029435954, "YS": 5.847075786510276, "ZS": -2.81132575469816, "DIST": 7.180284656127912, "LONG": 62.248694444444446, "LAT": -23.173305555555554, "ELEVATION": 805437.8125, "TYPE": "Satellite"}, {"NAME": "EYESAT A (AO-27)", "CATALOGNUMBER": "22825", "CLASS": "U", "LAUNCHYEAR": "93", "LAUNCHNUMBER": "061", "LAUNCHPIECE": "C  ", "X": 1651157.503790305, "Y": 6780391.486675293, "Z": 1637669.645640586, "XS": 1.651157503790305, "YS": 6.780391486675293, "ZS": 1.6376696456405861, "DIST": 7.168123302730945, "LONG": 76.31375, "LAT": 13.283083333333334, "ELEVATION": 791107.0625, "TYPE": "Satellite"}, {"NAME": "ITAMSAT (IO-26)", "CATALOGNUMBER": "22826", "CLASS": "U", "LAUNCHYEAR": "93", "LAUNCHNUMBER": "061", "LAUNCHPIECE": "D  ", "X": -55604.398730161294, "Y": -3885370.3351474553, "Z": -6037877.179995808, "XS": -0.05560439873016129, "YS": -3.8853703351474556, "ZS": -6.0378771799958075, "DIST": 7.180191872862181, "LONG": -90.81991666666666, "LAT": -57.39111111111111, "ELEVATION": 817195.4375, "TYPE": "Satellite"}, {"NAME": "USA 99 (MILSTAR-1 1)", "CATALOGNUMBER": "22988", "CLASS": "U", "LAUNCHYEAR": "94", "LAUNCHNUMBER": "009", "LAUNCHPIECE": "A  ", "X": 2065680.3921030592, "Y": -41327100.88137019, "Z": -8139284.902420488, "XS": 2.0656803921030593, "YS": -41.327100881370185, "ZS": -8.139284902420489, "DIST": 42.1716049192349, "LONG": -87.13852777777778, "LAT": -11.139138888888889, "ELEVATION": 35794264.0, "TYPE": "Satellite"}, {"NAME": "RADIO ROSTO (RS-15)", "CATALOGNUMBER": "23439", "CLASS": "U", "LAUNCHYEAR": "94", "LAUNCHNUMBER": "085", "LAUNCHPIECE": "A  ", "X": -4651195.975170724, "Y": -3948899.327965, "Z": -5630135.998523798, "XS": -4.651195975170724, "YS": -3.948899327965, "ZS": -5.630135998523798, "DIST": 8.302160036021972, "LONG": -139.6685, "LAT": -42.84663888888889, "ELEVATION": 1933876.125, "TYPE": "Satellite"}, {"NAME": "UFO 4 (USA 108)", "CATALOGNUMBER": "23467", "CLASS": "U", "LAUNCHYEAR": "95", "LAUNCHNUMBER": "003", "LAUNCHPIECE": "A  ", "X": -41484407.58289678, "Y": 5825413.114276776, "Z": -4717251.0733953845, "XS": -41.48440758289678, "YS": 5.825413114276776, "ZS": -4.717251073395384, "DIST": 42.15618540790119, "LONG": 172.00655555555556, "LAT": -6.431277777777778, "ELEVATION": 35778316.0, "TYPE": "Satellite"}, {"NAME": "AMSC 1", "CATALOGNUMBER": "23553", "CLASS": "U", "LAUNCHYEAR": "95", "LAUNCHNUMBER": "019", "LAUNCHPIECE": "A  ", "X": -10913849.659824485, "Y": -40108381.85364779, "Z": -7162873.636245126, "XS": -10.913849659824486, "YS": -40.10838185364779, "ZS": -7.162873636245126, "DIST": 42.179392694111776, "LONG": -105.22213888888889, "LAT": -9.787027777777778, "ELEVATION": 35801872.0, "TYPE": "Satellite"}, {"NAME": "TDRS 7", "CATALOGNUMBER": "23613", "CLASS": "U", "LAUNCHYEAR": "95", "LAUNCHNUMBER": "035", "LAUNCHPIECE": "B  ", "X": 3231969.8079557586, "Y": 41964098.51509277, "Z": 2625915.0601882874, "XS": 3.2319698079557586, "YS": 41.964098515092765, "ZS": 2.6259150601882872, "DIST": 42.170210136152654, "LONG": 85.59591666666667, "LAT": 3.573694444444444, "ELEVATION": 35792156.0, "TYPE": "Satellite"}, {"NAME": "USA 115 (MILSTAR-1 2)", "CATALOGNUMBER": "23712", "CLASS": "U", "LAUNCHYEAR": "95", "LAUNCHNUMBER": "060", "LAUNCHPIECE": "A  ", "X": -19963579.07501336, "Y": -36312447.88486071, "Z": -7793478.944487608, "XS": -19.963579075013357, "YS": -36.31244788486071, "ZS": -7.7934789444876085, "DIST": 42.16487489526333, "LONG": -118.80077777777777, "LAT": -10.661972222222222, "ELEVATION": 35787468.0, "TYPE": "Satellite"}, {"NAME": "POLAR", "CATALOGNUMBER": "23802", "CLASS": "U", "LAUNCHYEAR": "96", "LAUNCHNUMBER": "013", "LAUNCHPIECE": "A  ", "X": 15441169.10724915, "Y": -10067859.739502748, "Z": 28006841.10521323, "XS": 15.44116910724915, "YS": -10.06785973950275, "ZS": 28.00684110521323, "DIST": 33.528713840909965, "LONG": -33.10491666666667, "LAT": 56.68161111111111, "ELEVATION": 27165496.0, "TYPE": "Satellite"}, {"NAME": "INMARSAT 3-F1", "CATALOGNUMBER": "23839", "CLASS": "U", "LAUNCHYEAR": "96", "LAUNCHNUMBER": "020", "LAUNCHPIECE": "A  ", "X": -42207960.8114144, "Y": 820812.8632252186, "Z": -920285.0348556067, "XS": -42.207960811414395, "YS": 0.8208128632252186, "ZS": -0.9202850348556068, "DIST": 42.22597084922629, "LONG": 178.88591666666665, "LAT": -1.2500833333333332, "ELEVATION": 35847844.0, "TYPE": "Satellite"}, {"NAME": "JAS-2 (FO-29)", "CATALOGNUMBER": "24278", "CLASS": "U", "LAUNCHYEAR": "96", "LAUNCHNUMBER": "046", "LAUNCHPIECE": "B  ", "X": 3277459.0215614773, "Y": 529586.7961341984, "Z": 6356681.908261684, "XS": 3.2774590215614774, "YS": 0.5295867961341985, "ZS": 6.356681908261684, "DIST": 7.171443696737485, "LONG": 9.178777777777777, "LAT": 62.56269444444444, "ELEVATION": 810123.6875, "TYPE": "Satellite"}, {"NAME": "INMARSAT 3-F2", "CATALOGNUMBER": "24307", "CLASS": "U", "LAUNCHYEAR": "96", "LAUNCHNUMBER": "053", "LAUNCHPIECE": "A  ", "X": 20311953.27481085, "Y": 36633471.11698876, "Z": 5317040.607731447, "XS": 20.31195327481085, "YS": 36.633471116988765, "ZS": 5.317040607731447, "DIST": 42.22389812347522, "LONG": 60.99319444444445, "LAT": 7.241416666666667, "ELEVATION": 35846100.0, "TYPE": "Satellite"}, {"NAME": "INMARSAT 3-F3", "CATALOGNUMBER": "24674", "CLASS": "U", "LAUNCHYEAR": "96", "LAUNCHNUMBER": "070", "LAUNCHPIECE": "A  ", "X": 27461918.889611024, "Y": -32040999.2900449, "Z": -2499216.141600601, "XS": 27.461918889611024, "YS": -32.0409992900449, "ZS": -2.499216141600601, "DIST": 42.2732623052287, "LONG": -49.400555555555556, "LAT": -3.39275, "ELEVATION": 35895200.0, "TYPE": "Satellite"}, {"NAME": "GALAXY 25 (G-25)", "CATALOGNUMBER": "24812", "CLASS": "U", "LAUNCHYEAR": "97", "LAUNCHNUMBER": "026", "LAUNCHPIECE": "A  ", "X": -31306831.957520187, "Y": 28622573.538212284, "Z": 2635734.4817850725, "XS": -31.30683195752019, "YS": 28.622573538212283, "ZS": 2.6357344817850725, "DIST": 42.50078280955832, "LONG": 137.56458333333333, "LAT": 3.559111111111111, "ELEVATION": 36122728.0, "TYPE": "Satellite"}, {"NAME": "NAVSTAR 43 (USA 132)", "CATALOGNUMBER": "24876", "CLASS": "U", "LAUNCHYEAR": "97", "LAUNCHNUMBER": "035", "LAUNCHPIECE": "A  ", "X": -17397046.557910476, "Y": -4734453.718660033, "Z": 19377616.763698477, "XS": -17.397046557910475, "YS": -4.734453718660033, "ZS": 19.377616763698477, "DIST": 26.468175463998396, "LONG": -164.77613888888888, "LAT": 47.10975, "ELEVATION": 20101500.0, "TYPE": "Satellite"}, {"NAME": "INTELSAT 5 (IS-5)", "CATALOGNUMBER": "24916", "CLASS": "U", "LAUNCHYEAR": "97", "LAUNCHNUMBER": "046", "LAUNCHPIECE": "A  ", "X": -40911005.09710811, "Y": 10094544.745590894, "Z": 345684.8116665927, "XS": -40.91100509710811, "YS": 10.094544745590893, "ZS": 0.3456848116665927, "DIST": 42.139407561869675, "LONG": 166.13947222222222, "LAT": 0.47050000000000003, "ELEVATION": 35761272.0, "TYPE": "Satellite"}, {"NAME": "FORTE", "CATALOGNUMBER": "24920", "CLASS": "U", "LAUNCHYEAR": "97", "LAUNCHNUMBER": "047", "LAUNCHPIECE": "A  ", "X": 3055746.0968390433, "Y": 1847514.8470381603, "Z": 6229226.177426051, "XS": 3.0557460968390435, "YS": 1.8475148470381604, "ZS": 6.229226177426051, "DIST": 7.1801221499291685, "LONG": 31.157305555555553, "LAT": 60.323888888888895, "ELEVATION": 818097.75, "TYPE": "Satellite"}, {"NAME": "AMC-3 (GE-3)", "CATALOGNUMBER": "24936", "CLASS": "U", "LAUNCHYEAR": "97", "LAUNCHNUMBER": "050", "LAUNCHPIECE": "A  ", "X": 14316911.031275231, "Y": -39529670.07223225, "Z": -3353963.9545493373, "XS": 14.31691103127523, "YS": -39.52967007223225, "ZS": -3.353963954549337, "DIST": 42.17603385461227, "LONG": -70.09055555555555, "LAT": -4.5657499999999995, "ELEVATION": 35798032.0, "TYPE": "Satellite"}, {"NAME": "USA 134", "CATALOGNUMBER": "25019", "CLASS": "U", "LAUNCHYEAR": "97", "LAUNCHNUMBER": "065", "LAUNCHPIECE": "A  ", "X": -14440532.984460637, "Y": -39012313.532598086, "Z": -6895764.6073262, "XS": -14.440532984460637, "YS": -39.012313532598085, "ZS": -6.895764607326201, "DIST": 42.1668254622124, "LONG": -110.31219444444444, "LAT": -9.421527777777778, "ELEVATION": 35789260.0, "TYPE": "Satellite"}, {"NAME": "NAVSTAR 44 (USA 135)", "CATALOGNUMBER": "25030", "CLASS": "U", "LAUNCHYEAR": "97", "LAUNCHNUMBER": "067", "LAUNCHPIECE": "A  ", "X": 16845330.09103499, "Y": -21597339.44351177, "Z": 3992863.225513253, "XS": 16.845330091034988, "YS": -21.597339443511768, "ZS": 3.992863225513253, "DIST": 27.679472062376014, "LONG": -52.046749999999996, "LAT": 8.306694444444446, "ELEVATION": 21301780.0, "TYPE": "Satellite"}, {"NAME": "ORBCOMM FM11", "CATALOGNUMBER": "25114", "CLASS": "U", "LAUNCHYEAR": "97", "LAUNCHNUMBER": "084", "LAUNCHPIECE": "C  ", "X": -3158977.6679919553, "Y": -4531555.4797408525, "Z": -4520093.950985991, "XS": -3.1589776679919552, "YS": -4.531555479740852, "ZS": -4.520093950985991, "DIST": 7.137603540305484, "LONG": -124.88061111111112, "LAT": -39.460861111111114, "ELEVATION": 768064.875, "TYPE": "Satellite"}, {"NAME": "ORBCOMM FM06", "CATALOGNUMBER": "25118", "CLASS": "U", "LAUNCHYEAR": "97", "LAUNCHNUMBER": "084", "LAUNCHPIECE": "G  ", "X": 5230944.262182798, "Y": -3628771.296364935, "Z": -3220685.0149045023, "XS": 5.230944262182798, "YS": -3.6287712963649352, "ZS": -3.220685014904502, "DIST": 7.134673851033108, "LONG": -34.74952777777778, "LAT": -26.973083333333335, "ELEVATION": 760909.5, "TYPE": "Satellite"}, {"NAME": "INMARSAT 3-F5", "CATALOGNUMBER": "25153", "CLASS": "U", "LAUNCHYEAR": "98", "LAUNCHNUMBER": "006", "LAUNCHPIECE": "B  ", "X": 25786764.86296663, "Y": -33310172.973844115, "Z": -2249334.163268371, "XS": 25.78676486296663, "YS": -33.31017297384412, "ZS": -2.249334163268371, "DIST": 42.18512024189799, "LONG": -52.25508333333333, "LAT": -3.059583333333333, "ELEVATION": 35807044.0, "TYPE": "Satellite"}, {"NAME": "ORBCOMM FM04", "CATALOGNUMBER": "25159", "CLASS": "U", "LAUNCHYEAR": "98", "LAUNCHNUMBER": "007", "LAUNCHPIECE": "C  ", "X": -3752817.1121231546, "Y": -4839895.110632099, "Z": 3768677.752652279, "XS": -3.7528171121231546, "YS": -4.839895110632099, "ZS": 3.768677752652279, "DIST": 7.191046722299967, "LONG": -127.78972222222222, "LAT": 31.758666666666667, "ELEVATION": 818801.4375, "TYPE": "Satellite"}, {"NAME": "CELESTIS-02 & TAURUS R/B", "CATALOGNUMBER": "25160", "CLASS": "U", "LAUNCHYEAR": "98", "LAUNCHNUMBER": "007", "LAUNCHPIECE": "D  ", "X": -1128774.9320944103, "Y": 4416853.221833021, "Z": -5549881.709587212, "XS": -1.1287749320944103, "YS": 4.416853221833021, "ZS": -5.549881709587212, "DIST": 7.182194109111237, "LONG": 104.33572222222222, "LAT": -50.76669444444444, "ELEVATION": 816848.0625, "TYPE": "Satellite"}, {"NAME": "NOAA 15", "CATALOGNUMBER": "25338", "CLASS": "U", "LAUNCHYEAR": "98", "LAUNCHNUMBER": "030", "LAUNCHPIECE": "A  ", "X": 3817913.306616617, "Y": 4643875.617288343, "Z": -3948791.210077528, "XS": 3.817913306616617, "YS": 4.643875617288343, "ZS": -3.9487912100775278, "DIST": 7.1927042749212875, "LONG": 50.575027777777784, "LAT": -33.455000000000005, "ELEVATION": 821031.875, "TYPE": "Satellite"}, {"NAME": "TECHSAT 1B (GO-32)", "CATALOGNUMBER": "25397", "CLASS": "U", "LAUNCHYEAR": "98", "LAUNCHNUMBER": "043", "LAUNCHPIECE": "D  ", "X": -4006615.8904056386, "Y": -252515.64271497415, "Z": -5975930.492040559, "XS": -4.006615890405639, "YS": -0.2525156427149742, "ZS": -5.9759304920405585, "DIST": 7.199199975606098, "LONG": -176.39372222222224, "LAT": -56.26452777777778, "ELEVATION": 835817.3125, "TYPE": "Satellite"}, {"NAME": "ORBCOMM FM19", "CATALOGNUMBER": "25415", "CLASS": "U", "LAUNCHYEAR": "98", "LAUNCHNUMBER": "046", "LAUNCHPIECE": "C  ", "X": -5920277.521993844, "Y": 3348342.221068898, "Z": 2201306.8027330115, "XS": -5.920277521993844, "YS": 3.348342221068898, "ZS": 2.2013068027330114, "DIST": 7.148904336090728, "LONG": 150.50872222222222, "LAT": 18.034833333333335, "ELEVATION": 772802.875, "TYPE": "Satellite"}, {"NAME": "ORBCOMM FM20", "CATALOGNUMBER": "25416", "CLASS": "U", "LAUNCHYEAR": "98", "LAUNCHNUMBER": "046", "LAUNCHPIECE": "D  ", "X": -3553915.3881809693, "Y": 6083401.808780986, "Z": -1248797.2329709192, "XS": -3.553915388180969, "YS": 6.083401808780986, "ZS": -1.2487972329709192, "DIST": 7.155248890325555, "LONG": 120.29341666666666, "LAT": -10.110333333333333, "ELEVATION": 777766.0, "TYPE": "Satellite"}, {"NAME": "ORBCOMM FM13", "CATALOGNUMBER": "25420", "CLASS": "U", "LAUNCHYEAR": "98", "LAUNCHNUMBER": "046", "LAUNCHPIECE": "H  ", "X": -4547704.531191359, "Y": 5482537.447120581, "Z": -665175.5795625515, "XS": -4.547704531191359, "YS": 5.482537447120581, "ZS": -0.6651755795625515, "DIST": 7.154180030845202, "LONG": 129.67533333333333, "LAT": -5.36675, "ELEVATION": 776228.6875, "TYPE": "Satellite"}, {"NAME": "ASTRA 2A", "CATALOGNUMBER": "25462", "CLASS": "U", "LAUNCHYEAR": "98", "LAUNCHNUMBER": "050", "LAUNCHPIECE": "A  ", "X": 22866750.362035654, "Y": 35321414.1625009, "Z": 2632868.6549412734, "XS": 22.866750362035656, "YS": 35.3214141625009, "ZS": 2.6328686549412734, "DIST": 42.15948965432041, "LONG": 57.081361111111114, "LAT": 3.5840833333333335, "ELEVATION": 35781436.0, "TYPE": "Satellite"}, {"NAME": "ORBCOMM FM27", "CATALOGNUMBER": "25481", "CLASS": "U", "LAUNCHYEAR": "98", "LAUNCHNUMBER": "053", "LAUNCHPIECE": "G  ", "X": 5644851.591613957, "Y": 4379546.97976794, "Z": 364189.8797931277, "XS": 5.644851591613957, "YS": 4.37954697976794, "ZS": 0.3641898797931277, "DIST": 7.153839214567577, "LONG": 37.80602777777778, "LAT": 2.9355833333333337, "ELEVATION": 775757.875, "TYPE": "Satellite"}, {"NAME": "SCD 2", "CATALOGNUMBER": "25504", "CLASS": "U", "LAUNCHYEAR": "98", "LAUNCHNUMBER": "060", "LAUNCHPIECE": "A  ", "X": 5064593.412078854, "Y": 4286647.645839519, "Z": 2574579.534884556, "XS": 5.064593412078854, "YS": 4.286647645839519, "ZS": 2.574579534884556, "DIST": 7.117156331759222, "LONG": 40.244416666666666, "LAT": 21.32375, "ELEVATION": 741828.25, "TYPE": "Satellite"}, {"NAME": "ISS (ZARYA)", "CATALOGNUMBER": "25544", "CLASS": "U", "LAUNCHYEAR": "98", "LAUNCHNUMBER": "067", "LAUNCHPIECE": "A  ", "X": -3651982.7862164453, "Y": -5406984.094859562, "Z": -1909946.3096645214, "XS": -3.651982786216445, "YS": -5.4069840948595616, "ZS": -1.9099463096645213, "DIST": 6.798555006667713, "LONG": -124.0358611111111, "LAT": -16.41352777777778, "ELEVATION": 422112.96875, "TYPE": "Satellite"}, {"NAME": "SWAS", "CATALOGNUMBER": "25560", "CLASS": "U", "LAUNCHYEAR": "98", "LAUNCHNUMBER": "071", "LAUNCHPIECE": "A  ", "X": 5336112.051093193, "Y": -4450541.922623117, "Z": -363313.2105822432, "XS": 5.336112051093193, "YS": -4.450541922623118, "ZS": -0.3633132105822432, "DIST": 6.957974684908781, "LONG": -39.82952777777778, "LAT": -3.011527777777778, "ELEVATION": 579896.25, "TYPE": "Satellite"}, {"NAME": "SKYNET 4E", "CATALOGNUMBER": "25639", "CLASS": "U", "LAUNCHYEAR": "99", "LAUNCHNUMBER": "009", "LAUNCHPIECE": "B  ", "X": 41555556.899478056, "Y": -120860.4091406278, "Z": 7186510.683225917, "XS": 41.555556899478056, "YS": -0.1208604091406278, "ZS": 7.186510683225917, "DIST": 42.17256041864634, "LONG": -0.16663888888888886, "LAT": 9.82125, "ELEVATION": 35795044.0, "TYPE": "Satellite"}, {"NAME": "LANDSAT 7", "CATALOGNUMBER": "25682", "CLASS": "U", "LAUNCHYEAR": "99", "LAUNCHNUMBER": "020", "LAUNCHPIECE": "A  ", "X": -1868565.8349092242, "Y": -1801753.650312443, "Z": 6568364.731256929, "XS": -1.8685658349092242, "YS": -1.801753650312443, "ZS": 6.5683647312569295, "DIST": 7.062667324646132, "LONG": -136.04286111111114, "LAT": 68.55488888888888, "ELEVATION": 703037.3125, "TYPE": "Satellite"}, {"NAME": "DLR-TUBSAT", "CATALOGNUMBER": "25757", "CLASS": "U", "LAUNCHYEAR": "99", "LAUNCHNUMBER": "029", "LAUNCHPIECE": "B  ", "X": 5815686.353443906, "Y": -951118.9834983827, "Z": 3941048.1889178464, "XS": 5.815686353443906, "YS": -0.9511189834983828, "ZS": 3.9410481889178466, "DIST": 7.08933677502891, "LONG": -9.28813888888889, "LAT": 33.93355555555555, "ELEVATION": 717828.375, "TYPE": "Satellite"}, {"NAME": "CXO", "CATALOGNUMBER": "25867", "CLASS": "U", "LAUNCHYEAR": "99", "LAUNCHNUMBER": "040", "LAUNCHPIECE": "B  ", "X": -19223497.421971194, "Y": -44281214.29646822, "Z": 24775483.304996327, "XS": -19.223497421971196, "YS": -44.28121429646822, "ZS": 24.775483304996328, "DIST": 54.26042172429575, "LONG": -113.46677777777778, "LAT": 27.18647222222222, "ELEVATION": 47886740.0, "TYPE": "Satellite"}, {"NAME": "ABS-6", "CATALOGNUMBER": "25924", "CLASS": "U", "LAUNCHYEAR": "99", "LAUNCHNUMBER": "053", "LAUNCHPIECE": "A  ", "X": -39353320.910233036, "Y": 15105448.94901639, "Z": 29173.830176065323, "XS": -39.35332091023304, "YS": 15.10544894901639, "ZS": 0.029173830176065323, "DIST": 42.15280898976357, "LONG": 159.0011111111111, "LAT": 0.03969444444444444, "ELEVATION": 35774672.0, "TYPE": "Satellite"}, {"NAME": "NAVSTAR 46 (USA 145)", "CATALOGNUMBER": "25933", "CLASS": "U", "LAUNCHYEAR": "99", "LAUNCHNUMBER": "055", "LAUNCHPIECE": "A  ", "X": 9704862.911722066, "Y": -19999527.185450368, "Z": 14641220.031018384, "XS": 9.704862911722065, "YS": -19.99952718545037, "ZS": 14.641220031018383, "DIST": 26.61824141023559, "LONG": -64.11480555555555, "LAT": 33.41236111111111, "ELEVATION": 20246574.0, "TYPE": "Satellite"}, {"NAME": "UFO 10 (USA 146)", "CATALOGNUMBER": "25967", "CLASS": "U", "LAUNCHYEAR": "99", "LAUNCHNUMBER": "063", "LAUNCHPIECE": "A  ", "X": 39277542.971579425, "Y": -15203983.488318594, "Z": 2372364.808412122, "XS": 39.27754297157942, "YS": -15.203983488318594, "ZS": 2.3723648084121223, "DIST": 42.1842934109548, "LONG": -21.160972222222224, "LAT": 3.2271666666666667, "ELEVATION": 35806224.0, "TYPE": "Satellite"}, {"NAME": "ORBCOMM FM32", "CATALOGNUMBER": "25982", "CLASS": "U", "LAUNCHYEAR": "99", "LAUNCHNUMBER": "065", "LAUNCHPIECE": "C  ", "X": -6117653.584944343, "Y": -2561739.7824937548, "Z": 2678086.516634098, "XS": -6.117653584944343, "YS": -2.561739782493755, "ZS": 2.6780865166340977, "DIST": 7.152645908275544, "LONG": -157.27872222222223, "LAT": 22.107722222222225, "ELEVATION": 777517.9375, "TYPE": "Satellite"}, {"NAME": "ORBCOMM FM35", "CATALOGNUMBER": "25985", "CLASS": "U", "LAUNCHYEAR": "99", "LAUNCHNUMBER": "065", "LAUNCHPIECE": "F  ", "X": 3156804.3995562545, "Y": -4171151.044885496, "Z": -4887165.997461653, "XS": 3.1568043995562545, "YS": -4.171151044885496, "ZS": -4.887165997461653, "DIST": 7.158792254497434, "LONG": -52.88088888888889, "LAT": -43.22425, "ELEVATION": 790644.5, "TYPE": "Satellite"}, {"NAME": "XMM-NEWTON", "CATALOGNUMBER": "25989", "CLASS": "U", "LAUNCHYEAR": "99", "LAUNCHNUMBER": "066", "LAUNCHPIECE": "A  ", "X": 5841167.932020147, "Y": -9811083.085986504, "Z": 28411086.708198067, "XS": 5.841167932020148, "YS": -9.811083085986505, "ZS": 28.411086708198066, "DIST": 30.61970676004164, "LONG": -59.231944444444444, "LAT": 68.13277777777778, "ELEVATION": 24259980.0, "TYPE": "Satellite"}, {"NAME": "DMSP 5D-3 F15 (USA 147)", "CATALOGNUMBER": "25991", "CLASS": "U", "LAUNCHYEAR": "99", "LAUNCHNUMBER": "067", "LAUNCHPIECE": "A  ", "X": -5676315.902531828, "Y": -4387089.54824684, "Z": -793995.3434445536, "XS": -5.676315902531828, "YS": -4.38708954824684, "ZS": -0.7939953434445536, "DIST": 7.217862947928841, "LONG": -142.30041666666665, "LAT": -6.352833333333334, "ELEVATION": 839985.8125, "TYPE": "Satellite"}, {"NAME": "TERRA", "CATALOGNUMBER": "25994", "CLASS": "U", "LAUNCHYEAR": "99", "LAUNCHNUMBER": "068", "LAUNCHPIECE": "A  ", "X": -1168667.7661387823, "Y": 3888665.845292686, "Z": 5783647.263848749, "XS": -1.1686677661387823, "YS": 3.888665845292686, "ZS": 5.783647263848749, "DIST": 7.066688197209696, "LONG": 106.72719444444445, "LAT": 55.09158333333333, "ELEVATION": 702896.1875, "TYPE": "Satellite"}, {"NAME": "GALAXY 11 (G-11)", "CATALOGNUMBER": "26038", "CLASS": "U", "LAUNCHYEAR": "99", "LAUNCHNUMBER": "071", "LAUNCHPIECE": "A  ", "X": -37982822.594061166, "Y": -18404865.460366085, "Z": -598045.983134965, "XS": -37.98282259406117, "YS": -18.404865460366086, "ZS": -0.5980459831349649, "DIST": 42.211272710308606, "LONG": -154.1471388888889, "LAT": -0.8126111111111111, "ELEVATION": 35833140.0, "TYPE": "Satellite"}, {"NAME": "USA 148", "CATALOGNUMBER": "26052", "CLASS": "U", "LAUNCHYEAR": "00", "LAUNCHNUMBER": "001", "LAUNCHPIECE": "A  ", "X": -42047526.93130869, "Y": 127734.15834926542, "Z": -2970807.0459552947, "XS": -42.04752693130869, "YS": 0.1277341583492654, "ZS": -2.970807045955295, "DIST": 42.15253885068652, "LONG": 179.82594444444445, "LAT": -4.0455, "ELEVATION": 35774508.0, "TYPE": "Satellite"}, {"NAME": "ASIASTAR", "CATALOGNUMBER": "26107", "CLASS": "U", "LAUNCHYEAR": "00", "LAUNCHNUMBER": "016", "LAUNCHPIECE": "A  ", "X": -10903885.044002859, "Y": 40448393.55354162, "Z": 4627355.994591533, "XS": -10.903885044002859, "YS": 40.44839355354162, "ZS": 4.627355994591533, "DIST": 42.147119398788085, "LONG": 105.08688888888888, "LAT": 6.309583333333333, "ELEVATION": 35769240.0, "TYPE": "Satellite"}, {"NAME": "IMAGE", "CATALOGNUMBER": "26113", "CLASS": "U", "LAUNCHYEAR": "00", "LAUNCHNUMBER": "017", "LAUNCHPIECE": "A  ", "X": -6780993.825477664, "Y": -7304451.713882112, "Z": -4053011.6808790565, "XS": -6.7809938254776645, "YS": -7.304451713882112, "ZS": -4.053011680879057, "DIST": 10.759358521163964, "LONG": -132.87169444444444, "LAT": -22.208805555555553, "ELEVATION": 4384262.0, "TYPE": "Satellite"}, {"NAME": "USA 149 (DSP 20)", "CATALOGNUMBER": "26356", "CLASS": "U", "LAUNCHYEAR": "00", "LAUNCHNUMBER": "024", "LAUNCHPIECE": "A  ", "X": -39915664.59685597, "Y": -11302749.316447003, "Z": -7513612.84348007, "XS": -39.91566459685597, "YS": -11.302749316447002, "ZS": -7.51361284348007, "DIST": 42.16001423482744, "LONG": -164.18969444444443, "LAT": -10.276083333333332, "ELEVATION": 35782556.0, "TYPE": "Satellite"}, {"NAME": "NAVSTAR 47 (USA 150)", "CATALOGNUMBER": "26360", "CLASS": "U", "LAUNCHYEAR": "00", "LAUNCHNUMBER": "025", "LAUNCHPIECE": "A  ", "X": -24727511.115852084, "Y": -622956.5512274993, "Z": -9375211.96543077, "XS": -24.727511115852085, "YS": -0.6229565512274993, "ZS": -9.37521196543077, "DIST": 26.452456979382124, "LONG": -178.55686111111112, "LAT": -20.788444444444444, "ELEVATION": 20077006.0, "TYPE": "Satellite"}, {"NAME": "TDRS 8", "CATALOGNUMBER": "26388", "CLASS": "U", "LAUNCHYEAR": "00", "LAUNCHNUMBER": "034", "LAUNCHPIECE": "A  ", "X": -40816332.26002859, "Y": -8868165.940115143, "Z": -5707879.858308797, "XS": -40.816332260028595, "YS": -8.868165940115142, "ZS": -5.707879858308797, "DIST": 42.156817227814486, "LONG": -167.74186111111112, "LAT": -7.789333333333333, "ELEVATION": 35779072.0, "TYPE": "Satellite"}, {"NAME": "NAVSTAR 48 (USA 151)", "CATALOGNUMBER": "26407", "CLASS": "U", "LAUNCHYEAR": "00", "LAUNCHNUMBER": "040", "LAUNCHPIECE": "A  ", "X": -16807373.787779156, "Y": -12009828.10525458, "Z": 16990140.639121108, "XS": -16.807373787779156, "YS": -12.009828105254579, "ZS": 16.99014063912111, "DIST": 26.74675052594246, "LONG": -144.45202777777777, "LAT": 39.48144444444445, "ELEVATION": 20377242.0, "TYPE": "Satellite"}, {"NAME": "CLUSTER II-FM7 (SAMBA)", "CATALOGNUMBER": "26410", "CLASS": "U", "LAUNCHYEAR": "00", "LAUNCHNUMBER": "041", "LAUNCHPIECE": "A  ", "X": -2600415.0584510462, "Y": -114570592.87944742, "Z": 21681996.696106445, "XS": -2.600415058451046, "YS": -114.57059287944742, "ZS": 21.681996696106445, "DIST": 116.63315091325569, "LONG": -91.30022222222222, "LAT": 10.71738888888889, "ELEVATION": 110255752.0, "TYPE": "Satellite"}, {"NAME": "CLUSTER II-FM6 (SALSA)", "CATALOGNUMBER": "26411", "CLASS": "U", "LAUNCHYEAR": "00", "LAUNCHNUMBER": "041", "LAUNCHPIECE": "B  ", "X": -12629722.433393534, "Y": -121322431.02801749, "Z": 41294944.66294994, "XS": -12.629722433393534, "YS": -121.32243102801749, "ZS": 41.294944662949945, "DIST": 128.77854873389717, "LONG": -95.94311111111111, "LAT": 18.709, "ELEVATION": 122402608.0, "TYPE": "Satellite"}, {"NAME": "INTELSAT 9 (IS-9)", "CATALOGNUMBER": "26451", "CLASS": "U", "LAUNCHYEAR": "00", "LAUNCHNUMBER": "043", "LAUNCHPIECE": "A  ", "X": 28008649.96284408, "Y": -31430359.39171678, "Z": -2591024.398536861, "XS": 28.008649962844082, "YS": -31.430359391716777, "ZS": -2.591024398536861, "DIST": 42.17896835707837, "LONG": -48.29469444444444, "LAT": -3.5254166666666666, "ELEVATION": 35800912.0, "TYPE": "Satellite"}, {"NAME": "CLUSTER II-FM5 (RUMBA)", "CATALOGNUMBER": "26463", "CLASS": "U", "LAUNCHYEAR": "00", "LAUNCHNUMBER": "045", "LAUNCHPIECE": "A  ", "X": -12144798.600759232, "Y": -119060357.86412555, "Z": 35553839.077170365, "XS": -12.144798600759232, "YS": -119.06035786412555, "ZS": 35.553839077170366, "DIST": 124.84766886454858, "LONG": -95.82433333333333, "LAT": 16.550916666666666, "ELEVATION": 118471264.0, "TYPE": "Satellite"}, {"NAME": "CLUSTER II-FM8 (TANGO)", "CATALOGNUMBER": "26464", "CLASS": "U", "LAUNCHYEAR": "00", "LAUNCHNUMBER": "045", "LAUNCHPIECE": "B  ", "X": -2647348.115900853, "Y": -114463679.62542546, "Z": 21605591.071800523, "XS": -2.6473481159008534, "YS": -114.46367962542546, "ZS": 21.60559107180052, "DIST": 116.51499461872137, "LONG": -91.32491666666667, "LAT": 10.690138888888889, "ELEVATION": 110137592.0, "TYPE": "Satellite"}, {"NAME": "NSS-11 (AAP-1)", "CATALOGNUMBER": "26554", "CLASS": "U", "LAUNCHYEAR": "00", "LAUNCHNUMBER": "059", "LAUNCHPIECE": "A  ", "X": -42056110.667062774, "Y": 2918988.6853914615, "Z": 8738.78839879746, "XS": -42.056110667062775, "YS": 2.9189886853914615, "ZS": 0.00873878839879746, "DIST": 42.15728899908173, "LONG": 176.0296388888889, "LAT": 0.011888888888888888, "ELEVATION": 35779152.0, "TYPE": "Satellite"}, {"NAME": "USA 153", "CATALOGNUMBER": "26575", "CLASS": "U", "LAUNCHYEAR": "00", "LAUNCHNUMBER": "065", "LAUNCHPIECE": "A  ", "X": -29549196.893599674, "Y": 30012847.243956454, "Z": 1715153.8213821992, "XS": -29.549196893599674, "YS": 30.012847243956454, "ZS": 1.715153821382199, "DIST": 42.15290961934641, "LONG": 134.554, "LAT": 2.334305555555556, "ELEVATION": 35774808.0, "TYPE": "Satellite"}, {"NAME": "AMC-6 (GE-6)", "CATALOGNUMBER": "26580", "CLASS": "U", "LAUNCHYEAR": "00", "LAUNCHNUMBER": "067", "LAUNCHPIECE": "A  ", "X": -30849676.255272154, "Y": -28737073.366467543, "Z": 9985.071210853821, "XS": -30.849676255272154, "YS": -28.73707336646754, "ZS": 0.00998507121085382, "DIST": 42.160668998801334, "LONG": -137.03052777777776, "LAT": 0.013583333333333333, "ELEVATION": 35782532.0, "TYPE": "Satellite"}, {"NAME": "NAVSTAR 49 (USA 154)", "CATALOGNUMBER": "26605", "CLASS": "U", "LAUNCHYEAR": "00", "LAUNCHNUMBER": "071", "LAUNCHPIECE": "A  ", "X": 17963970.633894216, "Y": 17332631.471193332, "Z": -8816124.36433372, "XS": 17.963970633894217, "YS": 17.33263147119333, "ZS": -8.81612436433372, "DIST": 26.473541573786722, "LONG": 43.97527777777778, "LAT": -19.48102777777778, "ELEVATION": 20097776.0, "TYPE": "Satellite"}, {"NAME": "INTELSAT 1R (IS-1R)", "CATALOGNUMBER": "26608", "CLASS": "U", "LAUNCHYEAR": "00", "LAUNCHNUMBER": "072", "LAUNCHPIECE": "A  ", "X": -38828474.66102381, "Y": 16322120.722990869, "Z": 1665691.405953331, "XS": -38.82847466102381, "YS": 16.322120722990867, "ZS": 1.665691405953331, "DIST": 42.15253962998579, "LONG": 157.19983333333334, "LAT": 2.266972222222222, "ELEVATION": 35774436.0, "TYPE": "Satellite"}, {"NAME": "ANIK F1", "CATALOGNUMBER": "26624", "CLASS": "U", "LAUNCHYEAR": "00", "LAUNCHNUMBER": "076", "LAUNCHPIECE": "A  ", "X": -13591260.321390484, "Y": -39923747.65780149, "Z": -1288346.1522491463, "XS": -13.591260321390484, "YS": -39.923747657801485, "ZS": -1.2883461522491462, "DIST": 42.193457075423765, "LONG": -108.80013888888888, "LAT": -1.7515277777777778, "ELEVATION": 35815340.0, "TYPE": "Satellite"}, {"NAME": "NAVSTAR 50 (USA 156)", "CATALOGNUMBER": "26690", "CLASS": "U", "LAUNCHYEAR": "01", "LAUNCHNUMBER": "004", "LAUNCHPIECE": "A  ", "X": -20027717.24048984, "Y": 12240355.966433994, "Z": 14102791.016946238, "XS": -20.027717240489842, "YS": 12.240355966433995, "ZS": 14.102791016946238, "DIST": 27.38292326464963, "LONG": 148.56794444444444, "LAT": 31.03838888888889, "ELEVATION": 21010458.0, "TYPE": "Satellite"}, {"NAME": "ODIN", "CATALOGNUMBER": "26702", "CLASS": "U", "LAUNCHYEAR": "01", "LAUNCHNUMBER": "007", "LAUNCHPIECE": "A  ", "X": 5193867.067975531, "Y": 4383666.19466824, "Z": -1204188.0827259049, "XS": 5.193867067975531, "YS": 4.38366619466824, "ZS": -1.2041880827259048, "DIST": 6.902380268042102, "LONG": 40.16463888888889, "LAT": -10.108472222222222, "ELEVATION": 524897.0, "TYPE": "Satellite"}, {"NAME": "USA 157 (MILSTAR-2 2)", "CATALOGNUMBER": "26715", "CLASS": "U", "LAUNCHYEAR": "01", "LAUNCHNUMBER": "009", "LAUNCHPIECE": "A  ", "X": -22065462.6583281, "Y": -35192604.416160494, "Z": -7250282.326705245, "XS": -22.0654626583281, "YS": -35.19260441616049, "ZS": -7.250282326705245, "DIST": 42.16598915874458, "LONG": -122.08736111111111, "LAT": -9.910833333333333, "ELEVATION": 35788484.0, "TYPE": "Satellite"}, {"NAME": "BSAT-2A", "CATALOGNUMBER": "26720", "CLASS": "U", "LAUNCHYEAR": "01", "LAUNCHNUMBER": "011", "LAUNCHPIECE": "B  ", "X": -42253240.67903417, "Y": 3868211.9103944926, "Z": -1439191.235193359, "XS": -42.25324067903417, "YS": 3.8682119103944927, "ZS": -1.439191235193359, "DIST": 42.454336441352645, "LONG": 174.76925, "LAT": -1.9446388888888888, "ELEVATION": 36076224.0, "TYPE": "Satellite"}, {"NAME": "INTELSAT 10 (IS-10)", "CATALOGNUMBER": "26766", "CLASS": "U", "LAUNCHYEAR": "01", "LAUNCHNUMBER": "019", "LAUNCHPIECE": "A  ", "X": -42120984.67214489, "Y": 1618349.972243634, "Z": 285245.4929802987, "XS": -42.12098467214489, "YS": 1.618349972243634, "ZS": 0.2852454929802987, "DIST": 42.15302802142441, "LONG": 177.79969444444444, "LAT": 0.38811111111111113, "ELEVATION": 35774892.0, "TYPE": "Satellite"}, {"NAME": "INTELSAT 901 (IS-901)", "CATALOGNUMBER": "26824", "CLASS": "U", "LAUNCHYEAR": "01", "LAUNCHNUMBER": "024", "LAUNCHPIECE": "A  ", "X": 37729616.59354639, "Y": -18833726.023822498, "Z": 14561.925698569616, "XS": 37.72961659354639, "YS": -18.833726023822496, "ZS": 0.014561925698569615, "DIST": 42.169104997451626, "LONG": -26.52727777777778, "LAT": 0.019805555555555555, "ELEVATION": 35790968.0, "TYPE": "Satellite"}, {"NAME": "ASTRA 2C", "CATALOGNUMBER": "26853", "CLASS": "U", "LAUNCHYEAR": "01", "LAUNCHNUMBER": "025", "LAUNCHPIECE": "A  ", "X": 13287711.653503075, "Y": -39887187.06924061, "Z": -3331058.484779226, "XS": 13.287711653503075, "YS": -39.88718706924061, "ZS": -3.331058484779226, "DIST": 42.174007681417436, "LONG": -71.57541666666665, "LAT": -4.534722222222222, "ELEVATION": 35796004.0, "TYPE": "Satellite"}, {"NAME": "OMNI-M1", "CATALOGNUMBER": "26857", "CLASS": "U", "LAUNCHYEAR": "01", "LAUNCHNUMBER": "026", "LAUNCHPIECE": "A  ", "X": -13536361.528140767, "Y": -10201573.64539056, "Z": 289871.9456503962, "XS": -13.536361528140766, "YS": -10.20157364539056, "ZS": 0.2898719456503962, "DIST": 16.952557742350617, "LONG": -142.99677777777777, "LAT": 0.9822222222222222, "ELEVATION": 10574427.0, "TYPE": "Satellite"}, {"NAME": "USA 159 (DSP 21)", "CATALOGNUMBER": "26880", "CLASS": "U", "LAUNCHYEAR": "01", "LAUNCHNUMBER": "033", "LAUNCHPIECE": "A  ", "X": 27717157.90428743, "Y": -31777999.158807512, "Z": 419677.6785312616, "XS": 27.717157904287433, "YS": -31.777999158807514, "ZS": 0.41967767853126164, "DIST": 42.16939888333994, "LONG": -48.904666666666664, "LAT": 0.5708055555555556, "ELEVATION": 35791264.0, "TYPE": "Satellite"}, {"NAME": "INTELSAT 902 (IS-902)", "CATALOGNUMBER": "26900", "CLASS": "U", "LAUNCHYEAR": "01", "LAUNCHNUMBER": "039", "LAUNCHPIECE": "A  ", "X": 27086413.788064517, "Y": -32260537.417457074, "Z": -2133131.24116506, "XS": 27.08641378806452, "YS": -32.26053741745707, "ZS": -2.13313124116506, "DIST": 42.177794338412646, "LONG": -49.98269444444445, "LAT": -2.9018888888888887, "ELEVATION": 35799712.0, "TYPE": "Satellite"}, {"NAME": "PCSAT (NO-44)", "CATALOGNUMBER": "26931", "CLASS": "U", "LAUNCHYEAR": "01", "LAUNCHNUMBER": "043", "LAUNCHPIECE": "C  ", "X": -7141376.910259064, "Y": 21756.766053545827, "Z": -641087.0902913413, "XS": -7.141376910259064, "YS": 0.021756766053545828, "ZS": -0.6410870902913413, "DIST": 7.1701276270781, "LONG": 179.82544444444443, "LAT": -5.160277777777778, "ELEVATION": 792162.3125, "TYPE": "Satellite"}, {"NAME": "PROBA-1", "CATALOGNUMBER": "26958", "CLASS": "U", "LAUNCHYEAR": "01", "LAUNCHNUMBER": "049", "LAUNCHPIECE": "B  ", "X": 6817140.727750347, "Y": -39931.987320695116, "Z": 1078867.320319271, "XS": 6.817140727750347, "YS": -0.03993198732069512, "ZS": 1.078867320319271, "DIST": 6.902098011504675, "LONG": -0.3356111111111111, "LAT": 9.047833333333333, "ELEVATION": 524485.8125, "TYPE": "Satellite"}, {"NAME": "BIRD 2", "CATALOGNUMBER": "26959", "CLASS": "U", "LAUNCHYEAR": "01", "LAUNCHNUMBER": "049", "LAUNCHPIECE": "C  ", "X": 5503848.4162815735, "Y": -1075079.9446629202, "Z": 3383312.9181102077, "XS": 5.503848416281573, "YS": -1.0750799446629202, "ZS": 3.3833129181102075, "DIST": 6.549423682941349, "LONG": -11.052555555555555, "LAT": 31.26911111111111, "ELEVATION": 177013.671875, "TYPE": "Satellite"}, {"NAME": "TIMED", "CATALOGNUMBER": "26998", "CLASS": "U", "LAUNCHYEAR": "01", "LAUNCHNUMBER": "055", "LAUNCHPIECE": "B  ", "X": 2488240.5916750235, "Y": 582383.5442326466, "Z": 6483502.774976724, "XS": 2.4882405916750234, "YS": 0.5823835442326466, "ZS": 6.483502774976724, "DIST": 6.9689540153299285, "LONG": 13.173194444444444, "LAT": 68.60758333333332, "ELEVATION": 609337.25, "TYPE": "Satellite"}, {"NAME": "MAROC-TUBSAT", "CATALOGNUMBER": "27004", "CLASS": "U", "LAUNCHYEAR": "01", "LAUNCHNUMBER": "056", "LAUNCHPIECE": "D  ", "X": 7357281.601754632, "Y": -234128.9696005446, "Z": -681621.432743744, "XS": 7.357281601754631, "YS": -0.2341289696005446, "ZS": -0.681621432743744, "DIST": 7.392497326309901, "LONG": -1.8226944444444444, "LAT": -5.321, "ELEVATION": 1014542.875, "TYPE": "Satellite"}, {"NAME": "COSMOS 2385", "CATALOGNUMBER": "27056", "CLASS": "U", "LAUNCHYEAR": "01", "LAUNCHNUMBER": "058", "LAUNCHPIECE": "B  ", "X": 1709844.7591219696, "Y": 3619638.7281487347, "Z": 6689563.006087867, "XS": 1.7098447591219696, "YS": 3.6196387281487348, "ZS": 6.689563006087867, "DIST": 7.795871140227396, "LONG": 64.7148888888889, "LAT": 59.24111111111111, "ELEVATION": 1433495.875, "TYPE": "Satellite"}, {"NAME": "COSMOS 2386", "CATALOGNUMBER": "27057", "CLASS": "U", "LAUNCHYEAR": "01", "LAUNCHNUMBER": "058", "LAUNCHPIECE": "C  ", "X": -1263419.4075454716, "Y": 129973.61202899028, "Z": 7681893.927941222, "XS": -1.2634194075454717, "YS": 0.12997361202899027, "ZS": 7.681893927941222, "DIST": 7.786181095975525, "LONG": 174.1263888888889, "LAT": 80.6623888888889, "ELEVATION": 1428861.875, "TYPE": "Satellite"}, {"NAME": "USA 164 (MILSTAR-2 3)", "CATALOGNUMBER": "27168", "CLASS": "U", "LAUNCHYEAR": "02", "LAUNCHNUMBER": "001", "LAUNCHPIECE": "A  ", "X": 39050150.41310376, "Y": 14011653.134295529, "Z": 6756790.319670449, "XS": 39.05015041310376, "YS": 14.011653134295528, "ZS": 6.756790319670449, "DIST": 42.03444880411582, "LONG": 19.738583333333334, "LAT": 9.259333333333334, "ELEVATION": 35656864.0, "TYPE": "Satellite"}, {"NAME": "INTELSAT 904 (IS-904)", "CATALOGNUMBER": "27380", "CLASS": "U", "LAUNCHYEAR": "02", "LAUNCHNUMBER": "007", "LAUNCHPIECE": "A  ", "X": 37028318.01412145, "Y": -20163699.36143419, "Z": -1039927.7743164876, "XS": 37.02831801412145, "YS": -20.16369936143419, "ZS": -1.0399277743164876, "DIST": 42.175260007129864, "LONG": -28.570416666666667, "LAT": -1.4143333333333332, "ELEVATION": 35797136.0, "TYPE": "Satellite"}, {"NAME": "NSS-7", "CATALOGNUMBER": "27414", "CLASS": "U", "LAUNCHYEAR": "02", "LAUNCHNUMBER": "019", "LAUNCHPIECE": "A  ", "X": 40087269.192134306, "Y": -13093139.531937458, "Z": -351003.6476631527, "XS": 40.08726919213431, "YS": -13.093139531937458, "ZS": -0.35100364766315273, "DIST": 42.1727715196203, "LONG": -18.087861111111113, "LAT": -0.47736111111111107, "ELEVATION": 35794636.0, "TYPE": "Satellite"}, {"NAME": "AQUA", "CATALOGNUMBER": "27424", "CLASS": "U", "LAUNCHYEAR": "02", "LAUNCHNUMBER": "022", "LAUNCHPIECE": "A  ", "X": -5633387.34716198, "Y": 2173824.849114265, "Z": -3703546.514889164, "XS": -5.63338734716198, "YS": 2.173824849114265, "ZS": -3.703546514889164, "DIST": 7.0835601406170765, "LONG": 158.89927777777777, "LAT": -31.677222222222223, "ELEVATION": 711287.375, "TYPE": "Satellite"}, {"NAME": "DIRECTV 5 (TEMPO 1)", "CATALOGNUMBER": "27426", "CLASS": "U", "LAUNCHYEAR": "02", "LAUNCHNUMBER": "023", "LAUNCHPIECE": "A  ", "X": -14362220.012907758, "Y": -39648766.660021715, "Z": -33740.174736100285, "XS": -14.362220012907759, "YS": -39.648766660021714, "ZS": -0.03374017473610028, "DIST": 42.16988498631943, "LONG": -109.91222222222223, "LAT": -0.04588888888888893, "ELEVATION": 35791748.0, "TYPE": "Satellite"}, {"NAME": "INTELSAT 905 (IS-905)", "CATALOGNUMBER": "27438", "CLASS": "U", "LAUNCHYEAR": "02", "LAUNCHNUMBER": "027", "LAUNCHPIECE": "A  ", "X": 38639593.95923971, "Y": -16847169.27124201, "Z": -1310586.8379883475, "XS": 38.639593959239704, "YS": -16.847169271242013, "ZS": -1.3105868379883474, "DIST": 42.173012361564865, "LONG": -23.557583333333334, "LAT": -1.7826388888888887, "ELEVATION": 35794896.0, "TYPE": "Satellite"}, {"NAME": "GALAXY 3C (G-3C)", "CATALOGNUMBER": "27445", "CLASS": "U", "LAUNCHYEAR": "02", "LAUNCHNUMBER": "030", "LAUNCHPIECE": "A  ", "X": -2347056.6919572903, "Y": -42095528.15964119, "Z": -651658.243751826, "XS": -2.3470566919572904, "YS": -42.09552815964119, "ZS": -0.651658243751826, "DIST": 42.16594389576802, "LONG": -93.19125, "LAT": -0.8864166666666667, "ELEVATION": 35787812.0, "TYPE": "Satellite"}, {"NAME": "COSMOS 2390", "CATALOGNUMBER": "27464", "CLASS": "U", "LAUNCHYEAR": "02", "LAUNCHNUMBER": "036", "LAUNCHPIECE": "A  ", "X": -3798380.49311766, "Y": 198817.2476931297, "Z": 6899358.943427121, "XS": -3.79838049311766, "YS": 0.1988172476931297, "ZS": 6.899358943427122, "DIST": 7.878348589566524, "LONG": 177.00372222222222, "LAT": 61.263527777777774, "ELEVATION": 1516626.125, "TYPE": "Satellite"}, {"NAME": "COSMOS 2391", "CATALOGNUMBER": "27465", "CLASS": "U", "LAUNCHYEAR": "02", "LAUNCHNUMBER": "036", "LAUNCHPIECE": "B  ", "X": -2690689.7976174876, "Y": 1991627.5567992283, "Z": -7111958.952759251, "XS": -2.6906897976174875, "YS": 1.9916275567992283, "ZS": -7.111958952759251, "DIST": 7.860429508477089, "LONG": 143.49144444444443, "LAT": -64.9135, "ELEVATION": 1499810.5, "TYPE": "Satellite"}, {"NAME": "INTELSAT 906 (IS-906)", "CATALOGNUMBER": "27513", "CLASS": "U", "LAUNCHYEAR": "02", "LAUNCHNUMBER": "041", "LAUNCHPIECE": "A  ", "X": 18435459.31308798, "Y": 37868441.904120885, "Z": 1936977.3406395526, "XS": 18.435459313087982, "YS": 37.868441904120886, "ZS": 1.9369773406395525, "DIST": 42.162031895396744, "LONG": 64.04183333333333, "LAT": 2.6358333333333333, "ELEVATION": 35783940.0, "TYPE": "Satellite"}, {"NAME": "INTEGRAL", "CATALOGNUMBER": "27540", "CLASS": "U", "LAUNCHYEAR": "02", "LAUNCHNUMBER": "048", "LAUNCHPIECE": "A  ", "X": 15520913.078694955, "Y": -7215482.19580483, "Z": 74762352.55884713, "XS": 15.520913078694955, "YS": -7.21548219580483, "ZS": 74.76235255884713, "DIST": 76.69661847987652, "LONG": -24.933138888888887, "LAT": 77.11186111111111, "ELEVATION": 70338800.0, "TYPE": "Satellite"}, {"NAME": "TDRS 10", "CATALOGNUMBER": "27566", "CLASS": "U", "LAUNCHYEAR": "02", "LAUNCHNUMBER": "055", "LAUNCHPIECE": "A  ", "X": -41478333.68365617, "Y": -6817138.86367864, "Z": -3385542.238725432, "XS": -41.478333683656174, "YS": -6.81713886367864, "ZS": -3.3855422387254324, "DIST": 42.170931264433776, "LONG": -170.66663888888888, "LAT": -4.609388888888889, "ELEVATION": 35792932.0, "TYPE": "Satellite"}, {"NAME": "LATINSAT B", "CATALOGNUMBER": "27606", "CLASS": "U", "LAUNCHYEAR": "02", "LAUNCHNUMBER": "058", "LAUNCHPIECE": "B  ", "X": -3579755.6404865654, "Y": 5501041.271181579, "Z": -2383913.8243211713, "XS": -3.5797556404865656, "YS": 5.501041271181578, "ZS": -2.383913824321171, "DIST": 6.982775281693376, "LONG": 123.05372222222222, "LAT": -20.075138888888887, "ELEVATION": 607140.5625, "TYPE": "Satellite"}, {"NAME": "SAUDISAT 1C (SO-50)", "CATALOGNUMBER": "27607", "CLASS": "U", "LAUNCHYEAR": "02", "LAUNCHNUMBER": "058", "LAUNCHPIECE": "C  ", "X": 4220865.497668984, "Y": 3408942.2719059973, "Z": -4399833.8223352255, "XS": 4.220865497668984, "YS": 3.4089422719059974, "ZS": -4.399833822335226, "DIST": 6.985351145559189, "LONG": 38.92575, "LAT": -39.212, "ELEVATION": 615720.875, "TYPE": "Satellite"}, {"NAME": "LATINSAT A", "CATALOGNUMBER": "27612", "CLASS": "U", "LAUNCHYEAR": "02", "LAUNCHNUMBER": "058", "LAUNCHPIECE": "H  ", "X": 3493376.720650546, "Y": 5121093.427669935, "Z": 3293745.0772501496, "XS": 3.493376720650546, "YS": 5.121093427669935, "ZS": 3.2937450772501498, "DIST": 7.019831582111993, "LONG": 55.69997222222222, "LAT": 28.12775, "ELEVATION": 646418.75, "TYPE": "Satellite"}, {"NAME": "NIMIQ 2", "CATALOGNUMBER": "27632", "CLASS": "U", "LAUNCHYEAR": "02", "LAUNCHNUMBER": "062", "LAUNCHPIECE": "A  ", "X": -13556336.485178415, "Y": -39770655.21512316, "Z": -3688645.6446728613, "XS": -13.556336485178415, "YS": -39.77065521512316, "ZS": -3.6886456446728615, "DIST": 42.17920556188258, "LONG": -108.82233333333333, "LAT": -5.022083333333333, "ELEVATION": 35801232.0, "TYPE": "Satellite"}, {"NAME": "CORIOLIS", "CATALOGNUMBER": "27640", "CLASS": "U", "LAUNCHYEAR": "03", "LAUNCHNUMBER": "001", "LAUNCHPIECE": "A  ", "X": 5424488.764504694, "Y": 4286108.662817591, "Z": 1997021.8491649388, "XS": 5.424488764504694, "YS": 4.286108662817591, "ZS": 1.9970218491649387, "DIST": 7.196103257441475, "LONG": 38.313694444444444, "LAT": 16.203027777777777, "ELEVATION": 819619.6875, "TYPE": "Satellite"}, {"NAME": "SORCE", "CATALOGNUMBER": "27651", "CLASS": "U", "LAUNCHYEAR": "03", "LAUNCHNUMBER": "004", "LAUNCHPIECE": "A  ", "X": 6665096.2575915875, "Y": -1730807.7814740362, "Z": 1078796.9744619008, "XS": 6.665096257591587, "YS": -1.7308077814740361, "ZS": 1.0787969744619008, "DIST": 6.970151118267136, "LONG": -14.557166666666667, "LAT": 8.957666666666666, "ELEVATION": 592528.625, "TYPE": "Satellite"}, {"NAME": "NAVSTAR 51 (USA 166)", "CATALOGNUMBER": "27663", "CLASS": "U", "LAUNCHYEAR": "03", "LAUNCHNUMBER": "005", "LAUNCHPIECE": "A  ", "X": 26709426.9260876, "Y": 1396886.1880540245, "Z": -2202807.402571579, "XS": 26.7094269260876, "YS": 1.3968861880540244, "ZS": -2.202807402571579, "DIST": 26.836488931960037, "LONG": 2.993805555555556, "LAT": -4.71575, "ELEVATION": 20458496.0, "TYPE": "Satellite"}, {"NAME": "USA 167", "CATALOGNUMBER": "27691", "CLASS": "U", "LAUNCHYEAR": "03", "LAUNCHNUMBER": "008", "LAUNCHPIECE": "A  ", "X": -26642143.859664686, "Y": -32221482.646764524, "Z": -5438248.777641834, "XS": -26.642143859664685, "YS": -32.22148264676452, "ZS": -5.438248777641833, "DIST": 42.16162144844929, "LONG": -129.58544444444445, "LAT": -7.418416666666667, "ELEVATION": 35783840.0, "TYPE": "Satellite"}, {"NAME": "NAVSTAR 52 (USA 168)", "CATALOGNUMBER": "27704", "CLASS": "U", "LAUNCHYEAR": "03", "LAUNCHNUMBER": "010", "LAUNCHPIECE": "A  ", "X": 16678869.621866105, "Y": -12843698.74204785, "Z": 16127684.512348844, "XS": 16.678869621866106, "YS": -12.84369874204785, "ZS": 16.127684512348843, "DIST": 26.518814018910167, "LONG": -37.59836111111111, "LAT": 37.501194444444444, "ELEVATION": 20148586.0, "TYPE": "Satellite"}, {"NAME": "USA 169 (MILSTAR-2 4)", "CATALOGNUMBER": "27711", "CLASS": "U", "LAUNCHYEAR": "03", "LAUNCHNUMBER": "012", "LAUNCHPIECE": "A  ", "X": -37482941.71055616, "Y": 20157667.75496846, "Z": -171395.3535282531, "XS": -37.482941710556155, "YS": 20.15766775496846, "ZS": -0.17139535352825308, "DIST": 42.55974465341465, "LONG": 151.72941666666668, "LAT": -0.23097222222222216, "ELEVATION": 36181608.0, "TYPE": "Satellite"}, {"NAME": "GALAXY 12 (G-12)", "CATALOGNUMBER": "27715", "CLASS": "U", "LAUNCHYEAR": "03", "LAUNCHNUMBER": "013", "LAUNCHPIECE": "B  ", "X": -11855074.482054569, "Y": 40639106.67088891, "Z": 3246457.8882128214, "XS": -11.855074482054569, "YS": 40.63910667088891, "ZS": 3.2464578882128214, "DIST": 42.4572640522548, "LONG": 106.26280555555556, "LAT": 4.38975, "ELEVATION": 36079252.0, "TYPE": "Satellite"}, {"NAME": "ASIASAT 4", "CATALOGNUMBER": "27718", "CLASS": "U", "LAUNCHYEAR": "03", "LAUNCHNUMBER": "014", "LAUNCHPIECE": "A  ", "X": -35577637.2585432, "Y": 22578666.486271307, "Z": 1154245.7833046552, "XS": -35.5776372585432, "YS": 22.578666486271306, "ZS": 1.1542457833046553, "DIST": 42.15325297681104, "LONG": 147.59952777777778, "LAT": 1.5706666666666667, "ELEVATION": 35775132.0, "TYPE": "Satellite"}, {"NAME": "HELLAS-SAT 2", "CATALOGNUMBER": "27811", "CLASS": "U", "LAUNCHYEAR": "03", "LAUNCHNUMBER": "020", "LAUNCHPIECE": "A  ", "X": 41771457.37883136, "Y": -5904508.843601213, "Z": -552574.0194900924, "XS": 41.77145737883136, "YS": -5.904508843601213, "ZS": -0.5525740194900924, "DIST": 42.19032133419589, "LONG": -8.045611111111112, "LAT": -0.7511944444444444, "ELEVATION": 35812188.0, "TYPE": "Satellite"}, {"NAME": "THURAYA-2", "CATALOGNUMBER": "27825", "CLASS": "U", "LAUNCHYEAR": "03", "LAUNCHNUMBER": "026", "LAUNCHPIECE": "A  ", "X": 30117794.921657298, "Y": 29011673.074144695, "Z": 5354857.205962466, "XS": 30.117794921657296, "YS": 29.011673074144696, "ZS": 5.354857205962466, "DIST": 42.15961623639744, "LONG": 43.92830555555555, "LAT": 7.304388888888889, "ELEVATION": 35781824.0, "TYPE": "Satellite"}, {"NAME": "OPTUS C1", "CATALOGNUMBER": "27831", "CLASS": "U", "LAUNCHYEAR": "03", "LAUNCHNUMBER": "028", "LAUNCHPIECE": "B  ", "X": -38418116.4186124, "Y": 17239151.81478078, "Z": 1654289.3117517808, "XS": -38.4181164186124, "YS": 17.23915181478078, "ZS": 1.6542893117517807, "DIST": 42.14115206747546, "LONG": 155.83305555555555, "LAT": 2.2520555555555557, "ELEVATION": 35763048.0, "TYPE": "Satellite"}, {"NAME": "MOST", "CATALOGNUMBER": "27843", "CLASS": "U", "LAUNCHYEAR": "03", "LAUNCHNUMBER": "031", "LAUNCHPIECE": "D  ", "X": -4654933.198597475, "Y": -2399098.79909747, "Z": 4945658.794630206, "XS": -4.654933198597475, "YS": -2.39909879909747, "ZS": 4.945658794630206, "DIST": 7.203028463371427, "LONG": -152.73394444444443, "LAT": 43.53208333333333, "ELEVATION": 834995.5625, "TYPE": "Satellite"}, {"NAME": "CUTE-1 (CO-55)", "CATALOGNUMBER": "27844", "CLASS": "U", "LAUNCHYEAR": "03", "LAUNCHNUMBER": "031", "LAUNCHPIECE": "E  ", "X": -2611091.3068472994, "Y": -619211.7055075867, "Z": 6665045.874596964, "XS": -2.6110913068472996, "YS": -0.6192117055075868, "ZS": 6.665045874596964, "DIST": 7.184988340937872, "LONG": -166.65894444444444, "LAT": 68.18688888888889, "ELEVATION": 825263.9375, "TYPE": "Satellite"}, {"NAME": "CUBESAT XI-IV (CO-57)", "CATALOGNUMBER": "27848", "CLASS": "U", "LAUNCHYEAR": "03", "LAUNCHNUMBER": "031", "LAUNCHPIECE": "J  ", "X": 5526345.630284661, "Y": 4262790.557743515, "Z": 1724144.2629216397, "XS": 5.526345630284662, "YS": 4.262790557743515, "ZS": 1.7241442629216397, "DIST": 7.189196951253962, "LONG": 37.64508333333333, "LAT": 13.955833333333333, "ELEVATION": 812294.875, "TYPE": "Satellite"}, {"NAME": "GALAXY 23 (G-23)", "CATALOGNUMBER": "27854", "CLASS": "U", "LAUNCHYEAR": "03", "LAUNCHNUMBER": "034", "LAUNCHPIECE": "A  ", "X": -20535246.56873448, "Y": -36829065.24077423, "Z": 301339.9612230002, "XS": -20.53524656873448, "YS": -36.82906524077423, "ZS": 0.3013399612230002, "DIST": 42.16831990867262, "LONG": -119.14327777777778, "LAT": 0.4098611111111111, "ELEVATION": 35790184.0, "TYPE": "Satellite"}, {"NAME": "SCISAT 1", "CATALOGNUMBER": "27858", "CLASS": "U", "LAUNCHYEAR": "03", "LAUNCHNUMBER": "036", "LAUNCHPIECE": "A  ", "X": -567010.1760017565, "Y": 2863071.545750174, "Z": -6376983.85396559, "XS": -0.5670101760017564, "YS": 2.863071545750174, "ZS": -6.37698385396559, "DIST": 7.013173482063, "LONG": 101.20205555555556, "LAT": -65.53877777777778, "ELEVATION": 652730.875, "TYPE": "Satellite"}, {"NAME": "COSMOS 2400", "CATALOGNUMBER": "27868", "CLASS": "U", "LAUNCHYEAR": "03", "LAUNCHNUMBER": "037", "LAUNCHPIECE": "A  ", "X": 3610409.934753134, "Y": -2955872.66169189, "Z": 6320077.617020622, "XS": 3.6104099347531338, "YS": -2.95587266169189, "ZS": 6.320077617020622, "DIST": 7.855929236841857, "LONG": -39.30747222222222, "LAT": 53.71066666666667, "ELEVATION": 1491651.125, "TYPE": "Satellite"}, {"NAME": "COSMOS 2401", "CATALOGNUMBER": "27869", "CLASS": "U", "LAUNCHYEAR": "03", "LAUNCHNUMBER": "037", "LAUNCHPIECE": "B  ", "X": 1147008.8160672497, "Y": 627028.9899801705, "Z": -7772253.274101777, "XS": 1.1470088160672498, "YS": 0.6270289899801705, "ZS": -7.772253274101777, "DIST": 7.881415833160775, "LONG": 28.66386111111111, "LAT": -80.5035, "ELEVATION": 1524077.375, "TYPE": "Satellite"}, {"NAME": "USA 170", "CATALOGNUMBER": "27875", "CLASS": "U", "LAUNCHYEAR": "03", "LAUNCHNUMBER": "040", "LAUNCHPIECE": "A  ", "X": 31453850.688143693, "Y": -28037710.507935245, "Z": -1881702.6947174948, "XS": 31.453850688143692, "YS": -28.037710507935245, "ZS": -1.8817026947174949, "DIST": 42.17817846553034, "LONG": -41.71355555555556, "LAT": -2.559583333333333, "ELEVATION": 35800084.0, "TYPE": "Satellite"}, {"NAME": "MOZHAYETS 4 (RS-22)", "CATALOGNUMBER": "27939", "CLASS": "U", "LAUNCHYEAR": "03", "LAUNCHNUMBER": "042", "LAUNCHPIECE": "A  ", "X": 6044746.990007911, "Y": -700015.8470119247, "Z": 3545121.9633224756, "XS": 6.044746990007911, "YS": -0.7000158470119248, "ZS": 3.5451219633224755, "DIST": 7.04250510075136, "LONG": -6.60575, "LAT": 30.376166666666666, "ELEVATION": 669804.8125, "TYPE": "Satellite"}, {"NAME": "LARETS", "CATALOGNUMBER": "27944", "CLASS": "U", "LAUNCHYEAR": "03", "LAUNCHNUMBER": "042", "LAUNCHPIECE": "F  ", "X": 4220005.968474704, "Y": -2035907.898143748, "Z": 5286296.36095068, "XS": 4.2200059684747036, "YS": -2.035907898143748, "ZS": 5.28629636095068, "DIST": 7.06387291501529, "LONG": -25.75461111111111, "LAT": 48.620333333333335, "ELEVATION": 697735.1875, "TYPE": "Satellite"}, {"NAME": "GALAXY 13 (HORIZONS-1)", "CATALOGNUMBER": "27954", "CLASS": "U", "LAUNCHYEAR": "03", "LAUNCHNUMBER": "044", "LAUNCHPIECE": "A  ", "X": -25368487.259660803, "Y": -33675648.761448056, "Z": 15498.68320233701, "XS": -25.368487259660803, "YS": -33.67564876144805, "ZS": 0.01549868320233701, "DIST": 42.16170899711219, "LONG": -126.99138888888889, "LAT": 0.021083333333333332, "ELEVATION": 35783572.0, "TYPE": "Satellite"}, {"NAME": "IRS-P6 (RESOURCESAT-1)", "CATALOGNUMBER": "28051", "CLASS": "U", "LAUNCHYEAR": "03", "LAUNCHNUMBER": "046", "LAUNCHPIECE": "A  ", "X": 698189.9845851149, "Y": 5211642.195016489, "Z": -4922209.762637564, "XS": 0.6981899845851148, "YS": 5.2116421950164895, "ZS": -4.922209762637564, "DIST": 7.20255736324646, "LONG": 82.36966666666666, "LAT": -43.2795, "ELEVATION": 834430.375, "TYPE": "Satellite"}, {"NAME": "DMSP 5D-3 F16 (USA 172)", "CATALOGNUMBER": "28054", "CLASS": "U", "LAUNCHYEAR": "03", "LAUNCHNUMBER": "048", "LAUNCHPIECE": "A  ", "X": 1642187.188385921, "Y": 2120226.056412693, "Z": 6698217.047697061, "XS": 1.6421871883859211, "YS": 2.120226056412693, "ZS": 6.698217047697061, "DIST": 7.215140255743454, "LONG": 52.241, "LAT": 68.29677777777778, "ELEVATION": 855444.3125, "TYPE": "Satellite"}, {"NAME": "CHUANGXIN 1 (CX-1)", "CATALOGNUMBER": "28058", "CLASS": "U", "LAUNCHYEAR": "03", "LAUNCHNUMBER": "049", "LAUNCHPIECE": "B  ", "X": -1300457.0206049068, "Y": -1788451.82572784, "Z": -6758983.868646921, "XS": -1.3004570206049069, "YS": -1.78845182572784, "ZS": -6.75898386864692, "DIST": 7.111512591004752, "LONG": -126.02244444444445, "LAT": -71.98538888888889, "ELEVATION": 752700.75, "TYPE": "Satellite"}, {"NAME": "YAMAL 202", "CATALOGNUMBER": "28089", "CLASS": "U", "LAUNCHYEAR": "03", "LAUNCHNUMBER": "053", "LAUNCHPIECE": "A  ", "X": -40421343.599802375, "Y": 11877017.583285404, "Z": 1175139.4583524468, "XS": -40.42134359980238, "YS": 11.877017583285404, "ZS": 1.1751394583524468, "DIST": 42.14652438616418, "LONG": 163.6256111111111, "LAT": 1.5993611111111112, "ELEVATION": 35768404.0, "TYPE": "Satellite"}, {"NAME": "UFO 11 (USA 174)", "CATALOGNUMBER": "28117", "CLASS": "U", "LAUNCHYEAR": "03", "LAUNCHNUMBER": "057", "LAUNCHPIECE": "A  ", "X": 10681517.479922507, "Y": 40442607.8970439, "Z": 5192979.862190935, "XS": 10.681517479922507, "YS": 40.4426078970439, "ZS": 5.192979862190935, "DIST": 42.15052062593116, "LONG": 75.2051388888889, "LAT": 7.083972222222222, "ELEVATION": 35772708.0, "TYPE": "Satellite"}, {"NAME": "NAVSTAR 53 (USA 175)", "CATALOGNUMBER": "28129", "CLASS": "U", "LAUNCHYEAR": "03", "LAUNCHNUMBER": "058", "LAUNCHPIECE": "A  ", "X": 23080630.317086544, "Y": -10653100.008140428, "Z": -7088286.837498246, "XS": 23.080630317086545, "YS": -10.653100008140427, "ZS": -7.088286837498246, "DIST": 26.390298329274472, "LONG": -24.77616666666667, "LAT": -15.604666666666667, "ELEVATION": 20013704.0, "TYPE": "Satellite"}, {"NAME": "USA 176 (DSP 22)", "CATALOGNUMBER": "28158", "CLASS": "U", "LAUNCHYEAR": "04", "LAUNCHNUMBER": "004", "LAUNCHPIECE": "A  ", "X": 1587435.714938577, "Y": 41698933.66938778, "Z": 6043525.790283282, "XS": 1.587435714938577, "YS": 41.69893366938778, "ZS": 6.043525790283282, "DIST": 42.164501957107035, "LONG": 87.81986111111111, "LAT": 8.248944444444444, "ELEVATION": 35786804.0, "TYPE": "Satellite"}, {"NAME": "ABS-4 (MOBISAT-1)", "CATALOGNUMBER": "28184", "CLASS": "U", "LAUNCHYEAR": "04", "LAUNCHNUMBER": "007", "LAUNCHPIECE": "A  ", "X": 20497660.546812527, "Y": 36787020.1171807, "Z": 2027962.7748352292, "XS": 20.497660546812526, "YS": 36.787020117180695, "ZS": 2.0279627748352294, "DIST": 42.16101955610572, "LONG": 60.87352777777778, "LAT": 2.7598055555555554, "ELEVATION": 35782932.0, "TYPE": "Satellite"}, {"NAME": "EUTELSAT 7A", "CATALOGNUMBER": "28187", "CLASS": "U", "LAUNCHYEAR": "04", "LAUNCHNUMBER": "008", "LAUNCHPIECE": "A  ", "X": -31736759.734383833, "Y": -27758710.17384784, "Z": -188076.6585244475, "XS": -31.73675973438383, "YS": -27.758710173847838, "ZS": -0.1880766585244475, "DIST": 42.16400457479308, "LONG": -138.82527777777779, "LAT": -0.25583333333333336, "ELEVATION": 35785868.0, "TYPE": "Satellite"}, {"NAME": "NAVSTAR 54 (USA 177)", "CATALOGNUMBER": "28190", "CLASS": "U", "LAUNCHYEAR": "04", "LAUNCHNUMBER": "009", "LAUNCHPIECE": "A  ", "X": -16548830.299902454, "Y": -19921231.055840407, "Z": -6858386.73009132, "XS": -16.548830299902455, "YS": -19.921231055840405, "ZS": -6.85838673009132, "DIST": 26.79098168441467, "LONG": -129.7168611111111, "LAT": -14.85525, "ELEVATION": 20414246.0, "TYPE": "Satellite"}, {"NAME": "SHIYAN 1 (SY-1)", "CATALOGNUMBER": "28220", "CLASS": "U", "LAUNCHYEAR": "04", "LAUNCHNUMBER": "012", "LAUNCHPIECE": "A  ", "X": 5031203.015984991, "Y": 4706373.670543165, "Z": 633603.4305318359, "XS": 5.031203015984991, "YS": 4.706373670543165, "ZS": 0.6336034305318359, "DIST": 6.9184109607640485, "LONG": 43.08941666666667, "LAT": 5.287083333333333, "ELEVATION": 540454.125, "TYPE": "Satellite"}, {"NAME": "AMC-11 (GE-11)", "CATALOGNUMBER": "28252", "CLASS": "U", "LAUNCHYEAR": "04", "LAUNCHNUMBER": "017", "LAUNCHPIECE": "A  ", "X": -15063404.564418567, "Y": -39383721.03881985, "Z": 21933.254397861278, "XS": -15.063404564418567, "YS": -39.38372103881985, "ZS": 0.021933254397861278, "DIST": 42.166148994217814, "LONG": -110.93075, "LAT": 0.029833333333333333, "ELEVATION": 35788012.0, "TYPE": "Satellite"}, {"NAME": "INTELSAT 10-02", "CATALOGNUMBER": "28358", "CLASS": "U", "LAUNCHYEAR": "04", "LAUNCHNUMBER": "022", "LAUNCHPIECE": "A  ", "X": 42162295.15125601, "Y": -728359.7544306656, "Z": 24385.311840333758, "XS": 42.16229515125601, "YS": -0.7283597544306656, "ZS": 0.024385311840333757, "DIST": 42.168592992853505, "LONG": -0.9896944444444444, "LAT": 0.033166666666666664, "ELEVATION": 35790456.0, "TYPE": "Satellite"}, {"NAME": "NAVSTAR 55 (USA 178)", "CATALOGNUMBER": "28361", "CLASS": "U", "LAUNCHYEAR": "04", "LAUNCHNUMBER": "023", "LAUNCHPIECE": "A  ", "X": -19783955.166586164, "Y": -15362852.972224336, "Z": 9364768.102233956, "XS": -19.783955166586164, "YS": -15.362852972224337, "ZS": 9.364768102233956, "DIST": 26.7417466723528, "LONG": -142.16955555555555, "LAT": 20.529166666666665, "ELEVATION": 20366232.0, "TYPE": "Satellite"}, {"NAME": "APRIZESAT 2", "CATALOGNUMBER": "28366", "CLASS": "U", "LAUNCHYEAR": "04", "LAUNCHNUMBER": "025", "LAUNCHPIECE": "A  ", "X": -1067654.6252714384, "Y": 606866.9429831404, "Z": -7007197.227547625, "XS": -1.0676546252714383, "YS": 0.6068669429831404, "ZS": -7.007197227547625, "DIST": 7.113999358384868, "LONG": 150.3856111111111, "LAT": -80.11766666666668, "ELEVATION": 756612.4375, "TYPE": "Satellite"}, {"NAME": "SAUDICOMSAT 1", "CATALOGNUMBER": "28369", "CLASS": "U", "LAUNCHYEAR": "04", "LAUNCHNUMBER": "025", "LAUNCHPIECE": "D  ", "X": -4609585.080375105, "Y": 701951.3463037714, "Z": 5339514.451507739, "XS": -4.609585080375105, "YS": 0.7019513463037713, "ZS": 5.339514451507739, "DIST": 7.088823942210332, "LONG": 171.34147222222222, "LAT": 49.04211111111111, "ELEVATION": 722842.5, "TYPE": "Satellite"}, {"NAME": "SAUDICOMSAT 2", "CATALOGNUMBER": "28370", "CLASS": "U", "LAUNCHYEAR": "04", "LAUNCHNUMBER": "025", "LAUNCHPIECE": "E  ", "X": -6845778.655571618, "Y": -483639.7559139864, "Z": -1715895.4503687858, "XS": -6.8457786555716185, "YS": -0.4836397559139864, "ZS": -1.7158954503687858, "DIST": 7.07409994353888, "LONG": -175.95888888888888, "LAT": -14.119527777777778, "ELEVATION": 697226.3125, "TYPE": "Satellite"}, {"NAME": "SAUDISAT 2", "CATALOGNUMBER": "28371", "CLASS": "U", "LAUNCHYEAR": "04", "LAUNCHNUMBER": "025", "LAUNCHPIECE": "F  ", "X": 6532838.11109454, "Y": -213644.20472877807, "Z": 2737278.297725763, "XS": 6.53283811109454, "YS": -0.21364420472877807, "ZS": 2.737278297725763, "DIST": 7.086346739412623, "LONG": -1.8730833333333332, "LAT": 22.8465, "ELEVATION": 711412.375, "TYPE": "Satellite"}, {"NAME": "APRIZESAT 1", "CATALOGNUMBER": "28372", "CLASS": "U", "LAUNCHYEAR": "04", "LAUNCHNUMBER": "025", "LAUNCHPIECE": "G  ", "X": -7099558.96906857, "Y": -290250.2152700201, "Z": -329969.2994646412, "XS": -7.09955896906857, "YS": -0.29025021527002015, "ZS": -0.3299692994646412, "DIST": 7.113147157295106, "LONG": -177.65888888888887, "LAT": -2.6748611111111114, "ELEVATION": 735056.375, "TYPE": "Satellite"}, {"NAME": "AURA", "CATALOGNUMBER": "28376", "CLASS": "U", "LAUNCHYEAR": "04", "LAUNCHNUMBER": "026", "LAUNCHPIECE": "A  ", "X": 6172199.926016801, "Y": -2986109.966705896, "Z": 1760328.8967845594, "XS": 6.172199926016801, "YS": -2.986109966705896, "ZS": 1.7603288967845594, "DIST": 7.078959138520072, "LONG": -25.81769444444444, "LAT": 14.482555555555555, "ELEVATION": 702149.9375, "TYPE": "Satellite"}, {"NAME": "ANIK F2", "CATALOGNUMBER": "28378", "CLASS": "U", "LAUNCHYEAR": "04", "LAUNCHNUMBER": "027", "LAUNCHPIECE": "A  ", "X": -15037927.46987123, "Y": -39400556.36991639, "Z": 412991.1503278463, "XS": -15.03792746987123, "YS": -39.40055636991639, "ZS": 0.4129911503278463, "DIST": 42.174798950775276, "LONG": -110.89025000000001, "LAT": 0.5616388888888889, "ELEVATION": 35796664.0, "TYPE": "Satellite"}, {"NAME": "COSMOS 2407", "CATALOGNUMBER": "28380", "CLASS": "U", "LAUNCHYEAR": "04", "LAUNCHNUMBER": "028", "LAUNCHPIECE": "A  ", "X": -5228912.252707936, "Y": -1217035.820072408, "Z": -5054979.333101127, "XS": -5.228912252707936, "YS": -1.217035820072408, "ZS": -5.0549793331011275, "DIST": 7.373975562201031, "LONG": -166.8976111111111, "LAT": -43.44211111111112, "ELEVATION": 1005909.875, "TYPE": "Satellite"}, {"NAME": "SHIJIAN-6 01A (SJ-6 01A)", "CATALOGNUMBER": "28413", "CLASS": "U", "LAUNCHYEAR": "04", "LAUNCHNUMBER": "035", "LAUNCHPIECE": "A  ", "X": -3167704.429816748, "Y": -4412072.581710358, "Z": -4342642.568573898, "XS": -3.167704429816748, "YS": -4.412072581710358, "ZS": -4.342642568573898, "DIST": 6.95408371385843, "LONG": -125.67694444444444, "LAT": -38.81561111111112, "ELEVATION": 584308.8125, "TYPE": "Satellite"}, {"NAME": "SHIJIAN-6 01B (SJ-6 01B)", "CATALOGNUMBER": "28414", "CLASS": "U", "LAUNCHYEAR": "04", "LAUNCHNUMBER": "035", "LAUNCHPIECE": "B  ", "X": -4236695.747824153, "Y": -3918952.2793411454, "Z": 3886667.6059544017, "XS": -4.236695747824153, "YS": -3.9189522793411453, "ZS": 3.886667605954402, "DIST": 6.958014293356959, "LONG": -137.2311111111111, "LAT": 34.121694444444444, "ELEVATION": 586570.3125, "TYPE": "Satellite"}, {"NAME": "COSMOS 2408", "CATALOGNUMBER": "28419", "CLASS": "U", "LAUNCHYEAR": "04", "LAUNCHNUMBER": "037", "LAUNCHPIECE": "A  ", "X": 104535.06454334965, "Y": -1306928.7515831136, "Z": 7754555.761476683, "XS": 0.10453506454334965, "YS": -1.3069287515831136, "ZS": 7.754555761476683, "DIST": 7.864612221799935, "LONG": -85.42691666666667, "LAT": 80.4545, "ELEVATION": 1507267.75, "TYPE": "Satellite"}, {"NAME": "COSMOS 2409", "CATALOGNUMBER": "28420", "CLASS": "U", "LAUNCHYEAR": "04", "LAUNCHNUMBER": "037", "LAUNCHPIECE": "B  ", "X": -1692182.63329361, "Y": -154765.03660293636, "Z": 7679101.900048607, "XS": -1.69218263329361, "YS": -0.15476503660293636, "ZS": 7.679101900048607, "DIST": 7.864861109536858, "LONG": -174.77433333333335, "LAT": 77.58805555555556, "ELEVATION": 1507114.125, "TYPE": "Satellite"}, {"NAME": "AMC-15", "CATALOGNUMBER": "28446", "CLASS": "U", "LAUNCHYEAR": "04", "LAUNCHNUMBER": "041", "LAUNCHPIECE": "A  ", "X": -10894817.955342812, "Y": -40740510.845929615, "Z": 22242.731392327543, "XS": -10.894817955342813, "YS": -40.74051084592961, "ZS": 0.022242731392327544, "DIST": 42.172108994055165, "LONG": -104.97169444444445, "LAT": 0.03025, "ELEVATION": 35793972.0, "TYPE": "Satellite"}, {"NAME": "JB-3 3 (ZY 2C)", "CATALOGNUMBER": "28470", "CLASS": "U", "LAUNCHYEAR": "04", "LAUNCHNUMBER": "044", "LAUNCHPIECE": "A  ", "X": 3511039.458530941, "Y": 1763180.2688123016, "Z": 5660595.108179163, "XS": 3.511039458530941, "YS": 1.7631802688123015, "ZS": 5.660595108179163, "DIST": 6.890467307696346, "LONG": 26.66497222222222, "LAT": 55.40266666666667, "ELEVATION": 526783.625, "TYPE": "Satellite"}, {"NAME": "NAVSTAR 56 (USA 180)", "CATALOGNUMBER": "28474", "CLASS": "U", "LAUNCHYEAR": "04", "LAUNCHNUMBER": "045", "LAUNCHPIECE": "A  ", "X": 16189890.162875544, "Y": -16429529.179586465, "Z": 13510927.17754117, "XS": 16.189890162875546, "YS": -16.429529179586464, "ZS": 13.51092717754117, "DIST": 26.73176248857673, "LONG": -45.42091666666666, "LAT": 30.39961111111111, "ELEVATION": 20359088.0, "TYPE": "Satellite"}, {"NAME": "SWIFT", "CATALOGNUMBER": "28485", "CLASS": "U", "LAUNCHYEAR": "04", "LAUNCHNUMBER": "047", "LAUNCHPIECE": "A  ", "X": -6323293.850107324, "Y": -1502472.5556520703, "Z": 2336195.2392865797, "XS": -6.323293850107325, "YS": -1.5024725556520704, "ZS": 2.3361952392865795, "DIST": 6.9064663244931594, "LONG": -166.63386111111112, "LAT": 19.88436111111111, "ELEVATION": 530786.0, "TYPE": "Satellite"}, {"NAME": "HELIOS 2A", "CATALOGNUMBER": "28492", "CLASS": "U", "LAUNCHYEAR": "04", "LAUNCHNUMBER": "049", "LAUNCHPIECE": "A  ", "X": -6254470.515036594, "Y": -794436.6460879674, "Z": -2942248.10566785, "XS": -6.254470515036594, "YS": -0.7944366460879675, "ZS": -2.94224810566785, "DIST": 6.9574675653872555, "LONG": -172.76111111111112, "LAT": -25.152583333333336, "ELEVATION": 583169.0, "TYPE": "Satellite"}, {"NAME": "NANOSAT-1", "CATALOGNUMBER": "28493", "CLASS": "U", "LAUNCHYEAR": "04", "LAUNCHNUMBER": "049", "LAUNCHPIECE": "B  ", "X": 2345267.3507982264, "Y": -3314479.163350025, "Z": 5724910.424628132, "XS": 2.3452673507982262, "YS": -3.314479163350025, "ZS": 5.724910424628132, "DIST": 7.018593195293304, "LONG": -54.717444444444446, "LAT": 54.81894444444445, "ELEVATION": 654705.0625, "TYPE": "Satellite"}, {"NAME": "COSMOS 2414", "CATALOGNUMBER": "28521", "CLASS": "U", "LAUNCHYEAR": "05", "LAUNCHNUMBER": "002", "LAUNCHPIECE": "A  ", "X": -5048901.370634933, "Y": 179323.56976999782, "Z": -5261731.236961769, "XS": -5.048901370634933, "YS": 0.17932356976999783, "ZS": -5.261731236961769, "DIST": 7.294475827850387, "LONG": 177.9658611111111, "LAT": -46.33227777777778, "ELEVATION": 927488.0, "TYPE": "Satellite"}, {"NAME": "NSS-10 (AMC-12)", "CATALOGNUMBER": "28526", "CLASS": "U", "LAUNCHYEAR": "05", "LAUNCHNUMBER": "003", "LAUNCHPIECE": "A  ", "X": 33852174.048337966, "Y": -25140461.212738194, "Z": -873888.862108631, "XS": 33.852174048337965, "YS": -25.140461212738195, "ZS": -0.8738888621086309, "DIST": 42.175539825015605, "LONG": -36.599583333333335, "LAT": -1.1884722222222222, "ELEVATION": 35797412.0, "TYPE": "Satellite"}, {"NAME": "XTAR-EUR", "CATALOGNUMBER": "28542", "CLASS": "U", "LAUNCHYEAR": "05", "LAUNCHNUMBER": "005", "LAUNCHPIECE": "A  ", "X": 36899469.66002893, "Y": 20413878.46478207, "Z": 319373.49177186296, "XS": 36.89946966002893, "YS": 20.41387846478207, "ZS": 0.31937349177186297, "DIST": 42.17107177430442, "LONG": 28.952666666666666, "LAT": 0.43436111111111114, "ELEVATION": 35792936.0, "TYPE": "Satellite"}, {"NAME": "XM-3 (RHYTHM)", "CATALOGNUMBER": "28626", "CLASS": "U", "LAUNCHYEAR": "05", "LAUNCHNUMBER": "008", "LAUNCHPIECE": "A  ", "X": 3771857.8631523116, "Y": -41996312.29758937, "Z": 13131.1152895606, "XS": 3.7718578631523116, "YS": -41.99631229758937, "ZS": 0.0131311152895606, "DIST": 42.16535699792745, "LONG": -84.86780555555556, "LAT": 0.017861111111111112, "ELEVATION": 35787220.0, "TYPE": "Satellite"}, {"NAME": "INMARSAT 4-F1", "CATALOGNUMBER": "28628", "CLASS": "U", "LAUNCHYEAR": "05", "LAUNCHNUMBER": "009", "LAUNCHPIECE": "A  ", "X": -33888197.336586446, "Y": 25066261.220797967, "Z": 69287.89161668783, "XS": -33.888197336586444, "YS": 25.066261220797966, "ZS": 0.06928789161668783, "DIST": 42.15130094225597, "LONG": 143.51058333333333, "LAT": 0.09427777777777777, "ELEVATION": 35773164.0, "TYPE": "Satellite"}, {"NAME": "IRS-P5 (CARTOSAT-1)", "CATALOGNUMBER": "28649", "CLASS": "U", "LAUNCHYEAR": "05", "LAUNCHNUMBER": "017", "LAUNCHPIECE": "A  ", "X": 1730179.2573855831, "Y": 6130691.096627135, "Z": -2893398.5617839615, "XS": 1.7301792573855832, "YS": 6.130691096627134, "ZS": -2.8933985617839615, "DIST": 6.9964740278431705, "LONG": 74.24008333333333, "LAT": -24.56036111111111, "ELEVATION": 622007.8125, "TYPE": "Satellite"}, {"NAME": "NOAA 18", "CATALOGNUMBER": "28654", "CLASS": "U", "LAUNCHYEAR": "05", "LAUNCHNUMBER": "018", "LAUNCHPIECE": "A  ", "X": -1965659.7014644968, "Y": 5023944.007436706, "Z": 4801945.360585794, "XS": -1.9656597014644968, "YS": 5.023944007436706, "ZS": 4.801945360585794, "DIST": 7.222361850383302, "LONG": 111.36833333333333, "LAT": 41.84108333333334, "ELEVATION": 853700.4375, "TYPE": "Satellite"}, {"NAME": "DIRECTV 8", "CATALOGNUMBER": "28659", "CLASS": "U", "LAUNCHYEAR": "05", "LAUNCHNUMBER": "019", "LAUNCHPIECE": "A  ", "X": -20440806.76271316, "Y": -36882137.257903896, "Z": 20627.028391125827, "XS": -20.44080676271316, "YS": -36.8821372579039, "ZS": 0.02062702839112583, "DIST": 42.1677489948864, "LONG": -118.99608333333333, "LAT": 0.028055555555555556, "ELEVATION": 35789612.0, "TYPE": "Satellite"}, {"NAME": "GALAXY 28 (G-28)", "CATALOGNUMBER": "28702", "CLASS": "U", "LAUNCHYEAR": "05", "LAUNCHNUMBER": "022", "LAUNCHPIECE": "A  ", "X": 2126764.24348056, "Y": -42108596.9279761, "Z": 528725.7901992602, "XS": 2.12676424348056, "YS": -42.1085969279761, "ZS": 0.5287257901992602, "DIST": 42.16558563984766, "LONG": -87.10863888888888, "LAT": 0.7191944444444445, "ELEVATION": 35787452.0, "TYPE": "Satellite"}, {"NAME": "SJ-7", "CATALOGNUMBER": "28737", "CLASS": "U", "LAUNCHYEAR": "05", "LAUNCHNUMBER": "024", "LAUNCHPIECE": "A  ", "X": -1529801.9473912371, "Y": 212288.1454974066, "Z": 6749680.157681593, "XS": -1.5298019473912372, "YS": 0.2122881454974066, "ZS": 6.749680157681593, "DIST": 6.92412756135828, "LONG": 172.09961111111113, "LAT": 77.18811111111111, "ELEVATION": 566315.8125, "TYPE": "Satellite"}, {"NAME": "THAICOM 4", "CATALOGNUMBER": "28786", "CLASS": "U", "LAUNCHYEAR": "05", "LAUNCHNUMBER": "028", "LAUNCHPIECE": "A  ", "X": -20762162.4162225, "Y": 36688157.470923215, "Z": 1102.5112411520943, "XS": -20.762162416222502, "YS": 36.688157470923215, "ZS": 0.0011025112411520942, "DIST": 42.155524999985374, "LONG": 119.50591666666666, "LAT": 0.0015, "ELEVATION": 35777388.0, "TYPE": "Satellite"}, {"NAME": "GALAXY 14 (G-14)", "CATALOGNUMBER": "28790", "CLASS": "U", "LAUNCHYEAR": "05", "LAUNCHNUMBER": "030", "LAUNCHPIECE": "A  ", "X": 35412078.02002581, "Y": 22882150.730748452, "Z": 629448.3817420363, "XS": 35.41207802002581, "YS": 22.882150730748453, "ZS": 0.6294483817420363, "DIST": 42.16638823786506, "LONG": 32.86925, "LAT": 0.8561944444444444, "ELEVATION": 35788256.0, "TYPE": "Satellite"}, {"NAME": "REIMEI (INDEX)", "CATALOGNUMBER": "28810", "CLASS": "U", "LAUNCHYEAR": "05", "LAUNCHNUMBER": "031", "LAUNCHPIECE": "B  ", "X": 1584202.4980875016, "Y": -1735406.2891121753, "Z": -6569812.50185215, "XS": 1.5842024980875016, "YS": -1.7354062891121753, "ZS": -6.56981250185215, "DIST": 6.977375498905701, "LONG": -47.60794444444444, "LAT": -70.43094444444445, "ELEVATION": 618207.4375, "TYPE": "Satellite"}, {"NAME": "ANIK F1R", "CATALOGNUMBER": "28868", "CLASS": "U", "LAUNCHYEAR": "05", "LAUNCHNUMBER": "036", "LAUNCHPIECE": "A  ", "X": -12125773.057298543, "Y": -40388137.16134827, "Z": -364098.3403941154, "XS": -12.125773057298543, "YS": -40.38813716134827, "ZS": -0.3640983403941154, "DIST": 42.17070740694856, "LONG": -106.71138888888889, "LAT": -0.49519444444444444, "ELEVATION": 35792572.0, "TYPE": "Satellite"}, {"NAME": "NAVSTAR 57 (USA 183)", "CATALOGNUMBER": "28874", "CLASS": "U", "LAUNCHYEAR": "05", "LAUNCHNUMBER": "038", "LAUNCHPIECE": "A  ", "X": -12098697.613904357, "Y": -23494626.679769397, "Z": 2309484.377687509, "XS": -12.098697613904356, "YS": -23.494626679769397, "ZS": 2.309484377687509, "DIST": 26.527526927047113, "LONG": -117.24647222222222, "LAT": 5.0025, "ELEVATION": 20149552.0, "TYPE": "Satellite"}, {"NAME": "SYRACUSE 3A", "CATALOGNUMBER": "28885", "CLASS": "U", "LAUNCHYEAR": "05", "LAUNCHNUMBER": "041", "LAUNCHPIECE": "B  ", "X": 28776846.339781098, "Y": 30806316.98566284, "Z": 851204.9383715802, "XS": 28.7768463397811, "YS": 30.80631698566284, "ZS": 0.8512049383715802, "DIST": 42.16468429066699, "LONG": 46.95080555555556, "LAT": 1.1579166666666665, "ELEVATION": 35786556.0, "TYPE": "Satellite"}, {"NAME": "BEIJING 1", "CATALOGNUMBER": "28890", "CLASS": "U", "LAUNCHYEAR": "05", "LAUNCHNUMBER": "043", "LAUNCHPIECE": "A  ", "X": -337926.3021834158, "Y": 1563268.2568235751, "Z": -6900117.192647798, "XS": -0.3379263021834158, "YS": 1.5632682568235752, "ZS": -6.900117192647798, "DIST": 7.083051538763028, "LONG": 102.19775, "LAT": -77.02569444444444, "ELEVATION": 725213.375, "TYPE": "Satellite"}, {"NAME": "SINAH 1", "CATALOGNUMBER": "28893", "CLASS": "U", "LAUNCHYEAR": "05", "LAUNCHNUMBER": "043", "LAUNCHPIECE": "D  ", "X": -1897680.3423125236, "Y": -72555.08906625843, "Z": 6784634.730960445, "XS": -1.8976803423125237, "YS": -0.07255508906625843, "ZS": 6.784634730960445, "DIST": 7.045404413878844, "LONG": -177.81044444444444, "LAT": 74.4526388888889, "ELEVATION": 687104.6875, "TYPE": "Satellite"}, {"NAME": "CUBESAT XI-V", "CATALOGNUMBER": "28895", "CLASS": "U", "LAUNCHYEAR": "05", "LAUNCHNUMBER": "043", "LAUNCHPIECE": "F  ", "X": -4907164.3434629105, "Y": 2417213.4041913, "Z": -4477650.885386368, "XS": -4.90716434346291, "YS": 2.4172134041913, "ZS": -4.477650885386368, "DIST": 7.069125829022793, "LONG": 153.77566666666667, "LAT": -39.472166666666666, "ELEVATION": 699591.0, "TYPE": "Satellite"}, {"NAME": "INMARSAT 4-F2", "CATALOGNUMBER": "28899", "CLASS": "U", "LAUNCHYEAR": "05", "LAUNCHNUMBER": "044", "LAUNCHPIECE": "A  ", "X": 16736644.522175211, "Y": 38544679.928059936, "Z": 2802320.8138434635, "XS": 16.73664452217521, "YS": 38.544679928059935, "ZS": 2.8023208138434637, "DIST": 42.11485038038179, "LONG": 66.52883333333334, "LAT": 3.819138888888889, "ELEVATION": 35736808.0, "TYPE": "Satellite"}, {"NAME": "SPACEWAY 2", "CATALOGNUMBER": "28903", "CLASS": "U", "LAUNCHYEAR": "05", "LAUNCHNUMBER": "046", "LAUNCHPIECE": "B  ", "X": -30886691.639962193, "Y": -28695686.09013111, "Z": -291646.9657436171, "XS": -30.886691639962194, "YS": -28.69568609013111, "ZS": -0.2916469657436171, "DIST": 42.160587977376245, "LONG": -137.10597222222222, "LAT": -0.39675000000000005, "ELEVATION": 35782452.0, "TYPE": "Satellite"}, {"NAME": "COSMOS 2416", "CATALOGNUMBER": "28908", "CLASS": "U", "LAUNCHYEAR": "05", "LAUNCHNUMBER": "048", "LAUNCHPIECE": "A  ", "X": -5558002.111659078, "Y": 4068206.7710922747, "Z": 3709480.807207436, "XS": -5.558002111659078, "YS": 4.0682067710922745, "ZS": 3.7094808072074357, "DIST": 7.823166984323428, "LONG": 143.79755555555556, "LAT": 28.43611111111111, "ELEVATION": 1449852.125, "TYPE": "Satellite"}, {"NAME": "METEOSAT-9 (MSG-2)", "CATALOGNUMBER": "28912", "CLASS": "U", "LAUNCHYEAR": "05", "LAUNCHNUMBER": "049", "LAUNCHPIECE": "B  ", "X": 29341161.029458523, "Y": 29965316.580212638, "Z": 4385136.314689884, "XS": 29.341161029458522, "YS": 29.965316580212637, "ZS": 4.385136314689884, "DIST": 42.16696987936641, "LONG": 45.60297222222222, "LAT": 5.97525, "ELEVATION": 35789064.0, "TYPE": "Satellite"}, {"NAME": "EUTELSAT 174A", "CATALOGNUMBER": "28924", "CLASS": "U", "LAUNCHYEAR": "05", "LAUNCHNUMBER": "052", "LAUNCHPIECE": "A  ", "X": -41918295.084833674, "Y": 4346541.283627895, "Z": 436256.1423548014, "XS": -41.91829508483367, "YS": 4.346541283627895, "ZS": 0.4362561423548014, "DIST": 42.14529871019086, "LONG": 174.0801111111111, "LAT": 0.5936944444444445, "ELEVATION": 35767164.0, "TYPE": "Satellite"}, {"NAME": "ECHOSTAR 10", "CATALOGNUMBER": "28935", "CLASS": "U", "LAUNCHYEAR": "06", "LAUNCHNUMBER": "003", "LAUNCHPIECE": "A  ", "X": -14319668.194001004, "Y": -39662935.86293007, "Z": 18074.598988822007, "XS": -14.319668194001004, "YS": -39.66293586293007, "ZS": 0.018074598988822008, "DIST": 42.16872899607382, "LONG": -109.85130555555556, "LAT": 0.024583333333333332, "ELEVATION": 35790592.0, "TYPE": "Satellite"}, {"NAME": "SPAINSAT", "CATALOGNUMBER": "28945", "CLASS": "U", "LAUNCHYEAR": "06", "LAUNCHNUMBER": "007", "LAUNCHPIECE": "A  ", "X": 36536312.05921421, "Y": -21091084.94430646, "Z": 1716.2959047294362, "XS": 36.53631205921421, "YS": -21.09108494430646, "ZS": 0.0017162959047294362, "DIST": 42.18691699996462, "LONG": -29.996277777777777, "LAT": 0.0023333333333333335, "ELEVATION": 35808780.0, "TYPE": "Satellite"}, {"NAME": "EUTELSAT HOTBIRD 13E", "CATALOGNUMBER": "28946", "CLASS": "U", "LAUNCHYEAR": "06", "LAUNCHNUMBER": "007", "LAUNCHPIECE": "B  ", "X": 41110023.27764426, "Y": 9438843.560750578, "Z": 58446.22688554031, "XS": 41.11002327764426, "YS": 9.438843560750577, "ZS": 0.05844622688554031, "DIST": 42.17972495896829, "LONG": 12.930972222222222, "LAT": 0.07947222222222222, "ELEVATION": 35801588.0, "TYPE": "Satellite"}, {"NAME": "JCSAT-5A", "CATALOGNUMBER": "29045", "CLASS": "U", "LAUNCHYEAR": "06", "LAUNCHNUMBER": "010", "LAUNCHPIECE": "A  ", "X": -28221430.683915753, "Y": 31319584.33872604, "Z": 755.4833494763737, "XS": -28.221430683915752, "YS": 31.31958433872604, "ZS": 0.0007554833494763738, "DIST": 42.15881299999313, "LONG": 132.02136111111113, "LAT": 0.0010277777777777778, "ELEVATION": 35780676.0, "TYPE": "Satellite"}, {"NAME": "ASTRA 1KR", "CATALOGNUMBER": "29055", "CLASS": "U", "LAUNCHYEAR": "06", "LAUNCHNUMBER": "012", "LAUNCHPIECE": "A  ", "X": 39843152.32523392, "Y": 13836160.658414664, "Z": 22184.13973875222, "XS": 39.84315232523392, "YS": 13.836160658414665, "ZS": 0.022184139738752218, "DIST": 42.17720499408787, "LONG": 19.15036111111111, "LAT": 0.030166666666666668, "ELEVATION": 35799068.0, "TYPE": "Satellite"}, {"NAME": "EROS B", "CATALOGNUMBER": "29079", "CLASS": "U", "LAUNCHYEAR": "06", "LAUNCHNUMBER": "014", "LAUNCHPIECE": "A  ", "X": -3921191.705389274, "Y": 3372022.7526802607, "Z": -4537214.629619184, "XS": -3.921191705389274, "YS": 3.3720227526802606, "ZS": -4.537214629619184, "DIST": 6.879869070719105, "LONG": 139.30616666666668, "LAT": -41.43777777777778, "ELEVATION": 511056.75, "TYPE": "Satellite"}, {"NAME": "CLOUDSAT", "CATALOGNUMBER": "29107", "CLASS": "U", "LAUNCHYEAR": "06", "LAUNCHNUMBER": "016", "LAUNCHPIECE": "A  ", "X": -3157992.8633582895, "Y": 853322.224757793, "Z": 6247585.171130353, "XS": -3.1579928633582894, "YS": 0.853322224757793, "ZS": 6.2475851711303525, "DIST": 7.052191022286291, "LONG": 164.87919444444447, "LAT": 62.50577777777778, "ELEVATION": 690853.1875, "TYPE": "Satellite"}, {"NAME": "CALIPSO", "CATALOGNUMBER": "29108", "CLASS": "U", "LAUNCHYEAR": "06", "LAUNCHNUMBER": "016", "LAUNCHPIECE": "B  ", "X": 58751.430454086905, "Y": 1036003.2003692911, "Z": 6971353.677969152, "XS": 0.05875143045408691, "YS": 1.0360032003692912, "ZS": 6.9713536779691525, "DIST": 7.048157664602137, "LONG": 86.75425, "LAT": 81.58425, "ELEVATION": 690943.8125, "TYPE": "Satellite"}, {"NAME": "EWS-G1 (GOES 13)", "CATALOGNUMBER": "29155", "CLASS": "U", "LAUNCHYEAR": "06", "LAUNCHNUMBER": "018", "LAUNCHPIECE": "A  ", "X": 20073384.408261914, "Y": 37067628.07669998, "Z": 941991.8433843174, "XS": 20.073384408261912, "YS": 37.06762807669998, "ZS": 0.9419918433843174, "DIST": 42.16440633362946, "LONG": 61.56294444444444, "LAT": 1.2814444444444444, "ELEVATION": 35786280.0, "TYPE": "Satellite"}, {"NAME": "EUTELSAT 113 WEST A", "CATALOGNUMBER": "29162", "CLASS": "U", "LAUNCHYEAR": "06", "LAUNCHNUMBER": "020", "LAUNCHPIECE": "A  ", "X": -15140844.90483512, "Y": -39359100.20224463, "Z": 16216.914012075167, "XS": -15.14084490483512, "YS": -39.35910020224463, "ZS": 0.016216914012075166, "DIST": 42.17089299683972, "LONG": -111.04097222222222, "LAT": 0.022055555555555554, "ELEVATION": 35792756.0, "TYPE": "Satellite"}, {"NAME": "RESURS-DK 1", "CATALOGNUMBER": "29228", "CLASS": "U", "LAUNCHYEAR": "06", "LAUNCHNUMBER": "021", "LAUNCHPIECE": "A  ", "X": 1437043.5758132888, "Y": -5211942.2992774695, "Z": 4323868.3664609585, "XS": 1.437043575813289, "YS": -5.211942299277469, "ZS": 4.3238683664609585, "DIST": 6.922808275567489, "LONG": -74.58533333333332, "LAT": 38.82441666666667, "ELEVATION": 553036.4375, "TYPE": "Satellite"}, {"NAME": "GALAXY 16 (G-16)", "CATALOGNUMBER": "29236", "CLASS": "U", "LAUNCHYEAR": "06", "LAUNCHNUMBER": "023", "LAUNCHPIECE": "A  ", "X": -5150377.246130801, "Y": -41856031.126782805, "Z": 31597.05553140469, "XS": -5.150377246130801, "YS": -41.8560311267828, "ZS": 0.03159705553140469, "DIST": 42.17172898800322, "LONG": -97.01497222222223, "LAT": 0.042972222222222224, "ELEVATION": 35793592.0, "TYPE": "Satellite"}, {"NAME": "GENESIS 1", "CATALOGNUMBER": "29252", "CLASS": "U", "LAUNCHYEAR": "06", "LAUNCHNUMBER": "029", "LAUNCHPIECE": "A  ", "X": 3179008.7345985044, "Y": 4237742.215054611, "Z": -4350170.644433669, "XS": 3.1790087345985043, "YS": 4.2377422150546105, "ZS": -4.3501706444336685, "DIST": 6.854818761397122, "LONG": 53.124027777777776, "LAT": -39.56691666666667, "ELEVATION": 485317.625, "TYPE": "Satellite"}, {"NAME": "ARIRANG-2 (KOMPSAT-2)", "CATALOGNUMBER": "29268", "CLASS": "U", "LAUNCHYEAR": "06", "LAUNCHNUMBER": "031", "LAUNCHPIECE": "A  ", "X": -1067081.4643510848, "Y": -4276844.241660349, "Z": 5522218.421954101, "XS": -1.0670814643510849, "YS": -4.276844241660349, "ZS": 5.522218421954101, "DIST": 7.065759394343553, "LONG": -104.00938888888889, "LAT": 51.57130555555556, "ELEVATION": 700706.6875, "TYPE": "Satellite"}, {"NAME": "EUTELSAT HOTBIRD 13B", "CATALOGNUMBER": "29270", "CLASS": "U", "LAUNCHYEAR": "06", "LAUNCHNUMBER": "032", "LAUNCHPIECE": "A  ", "X": 35351269.188365586, "Y": 22986609.37361563, "Z": 41172.118294361, "XS": 35.351269188365585, "YS": 22.98660937361563, "ZS": 0.041172118294360995, "DIST": 42.16750097962653, "LONG": 33.03330555555556, "LAT": 0.056, "ELEVATION": 35789364.0, "TYPE": "Satellite"}, {"NAME": "JCSAT-3A", "CATALOGNUMBER": "29272", "CLASS": "U", "LAUNCHYEAR": "06", "LAUNCHNUMBER": "033", "LAUNCHPIECE": "A  ", "X": -25956873.544104528, "Y": 33216411.49090873, "Z": 4818.383824391297, "XS": -25.95687354410453, "YS": 33.21641149090873, "ZS": 0.004818383824391297, "DIST": 42.15553699972081, "LONG": 128.00575, "LAT": 0.006555555555555556, "ELEVATION": 35777400.0, "TYPE": "Satellite"}, {"NAME": "SYRACUSE 3B", "CATALOGNUMBER": "29273", "CLASS": "U", "LAUNCHYEAR": "06", "LAUNCHNUMBER": "033", "LAUNCHPIECE": "B  ", "X": 42032465.81082125, "Y": -3512409.289422847, "Z": 121323.65028286578, "XS": 42.03246581082125, "YS": -3.512409289422847, "ZS": 0.12132365028286578, "DIST": 42.17914082318889, "LONG": -4.776777777777777, "LAT": 0.16497222222222221, "ELEVATION": 35801004.0, "TYPE": "Satellite"}, {"NAME": "KOREASAT 5 (MUGUNGWHA 5)", "CATALOGNUMBER": "29349", "CLASS": "U", "LAUNCHYEAR": "06", "LAUNCHNUMBER": "034", "LAUNCHPIECE": "A  ", "X": -16500698.164420962, "Y": 38792969.65086709, "Z": 26093.35175220757, "XS": -16.500698164420964, "YS": 38.79296965086709, "ZS": 0.02609335175220757, "DIST": 42.15647299181261, "LONG": 113.04261111111111, "LAT": 0.0355, "ELEVATION": 35778336.0, "TYPE": "Satellite"}, {"NAME": "HINODE (SOLAR-B)", "CATALOGNUMBER": "29479", "CLASS": "U", "LAUNCHYEAR": "06", "LAUNCHNUMBER": "041", "LAUNCHPIECE": "A  ", "X": -1918068.6945916803, "Y": -540743.5232484582, "Z": 6753610.227131896, "XS": -1.9180686945916803, "YS": -0.5407435232484582, "ZS": 6.753610227131896, "DIST": 7.041494314073422, "LONG": -164.25575, "LAT": 73.65400000000001, "ELEVATION": 683036.0625, "TYPE": "Satellite"}, {"NAME": "NAVSTAR 58 (USA 190)", "CATALOGNUMBER": "29486", "CLASS": "U", "LAUNCHYEAR": "06", "LAUNCHNUMBER": "042", "LAUNCHPIECE": "A  ", "X": 15211968.373916235, "Y": 4476981.516892544, "Z": -21526982.637004405, "XS": 15.211968373916235, "YS": 4.476981516892544, "ZS": -21.526982637004405, "DIST": 26.736834643717913, "LONG": 16.3995, "LAT": -53.66786111111111, "ELEVATION": 20372560.0, "TYPE": "Satellite"}, {"NAME": "DIRECTV 9S", "CATALOGNUMBER": "29494", "CLASS": "U", "LAUNCHYEAR": "06", "LAUNCHNUMBER": "043", "LAUNCHPIECE": "A  ", "X": -7919928.54732152, "Y": -41422462.73888606, "Z": 86868.72686584534, "XS": -7.91992854732152, "YS": -41.42246273888606, "ZS": 0.08686872686584533, "DIST": 42.1728969093278, "LONG": -100.82424999999999, "LAT": 0.11813888888888889, "ELEVATION": 35794760.0, "TYPE": "Satellite"}, {"NAME": "OPTUS D1", "CATALOGNUMBER": "29495", "CLASS": "U", "LAUNCHYEAR": "06", "LAUNCHNUMBER": "043", "LAUNCHPIECE": "B  ", "X": -37219254.79493261, "Y": 19778997.873717487, "Z": 262050.0294888668, "XS": -37.21925479493261, "YS": 19.778997873717486, "ZS": 0.2620500294888668, "DIST": 42.14914417395198, "LONG": 152.013, "LAT": 0.3565833333333333, "ELEVATION": 35771008.0, "TYPE": "Satellite"}, {"NAME": "SHIJIAN-6 02A (SJ-6 02A)", "CATALOGNUMBER": "29505", "CLASS": "U", "LAUNCHYEAR": "06", "LAUNCHNUMBER": "046", "LAUNCHPIECE": "A  ", "X": 3524515.5853686123, "Y": 5250408.3837740095, "Z": 2874307.6140838014, "XS": 3.5245155853686123, "YS": 5.250408383774009, "ZS": 2.8743076140838015, "DIST": 6.946268247648573, "LONG": 56.12716666666667, "LAT": 24.576527777777777, "ELEVATION": 571806.4375, "TYPE": "Satellite"}, {"NAME": "SHIJIAN-6 02B (SJ-6 02B)", "CATALOGNUMBER": "29506", "CLASS": "U", "LAUNCHYEAR": "06", "LAUNCHNUMBER": "046", "LAUNCHPIECE": "B  ", "X": 3411190.3826538776, "Y": 5063469.636891342, "Z": 3333698.672447466, "XS": 3.4111903826538774, "YS": 5.063469636891342, "ZS": 3.3336986724474658, "DIST": 6.956183682818392, "LONG": 56.03238888888889, "LAT": 28.784472222222224, "ELEVATION": 582975.125, "TYPE": "Satellite"}, {"NAME": "XM-4 (BLUES)", "CATALOGNUMBER": "29520", "CLASS": "U", "LAUNCHYEAR": "06", "LAUNCHNUMBER": "049", "LAUNCHPIECE": "A  ", "X": 33663666.15052504, "Y": -25390172.839310743, "Z": 185040.95482468867, "XS": 33.66366615052504, "YS": -25.390172839310743, "ZS": 0.18504095482468866, "DIST": 42.16559658843973, "LONG": -37.02472222222222, "LAT": 0.25169444444444444, "ELEVATION": 35787460.0, "TYPE": "Satellite"}, {"NAME": "DMSP 5D-3 F17 (USA 191)", "CATALOGNUMBER": "29522", "CLASS": "U", "LAUNCHYEAR": "06", "LAUNCHNUMBER": "050", "LAUNCHPIECE": "A  ", "X": 5580462.705476355, "Y": 4550089.070814627, "Z": -683088.7095316944, "XS": 5.5804627054763545, "YS": 4.550089070814627, "ZS": -0.6830887095316944, "DIST": 7.232667885687055, "LONG": 39.19244444444444, "LAT": -5.451361111111111, "ELEVATION": 854722.4375, "TYPE": "Satellite"}, {"NAME": "BADR-4", "CATALOGNUMBER": "29526", "CLASS": "U", "LAUNCHYEAR": "06", "LAUNCHNUMBER": "051", "LAUNCHPIECE": "A  ", "X": 37921825.45831738, "Y": 18478348.4862596, "Z": 5434.598110088676, "XS": 37.92182545831738, "YS": 18.4783484862596, "ZS": 0.005434598110088676, "DIST": 42.18428899964532, "LONG": 25.978805555555553, "LAT": 0.007388888888888889, "ELEVATION": 35806152.0, "TYPE": "Satellite"}, {"NAME": "NAVSTAR 59 (USA 192)", "CATALOGNUMBER": "29601", "CLASS": "U", "LAUNCHYEAR": "06", "LAUNCHNUMBER": "052", "LAUNCHPIECE": "A  ", "X": -20491562.51181113, "Y": 10165996.050302655, "Z": -13711895.841727795, "XS": -20.49156251181113, "YS": 10.165996050302654, "ZS": -13.711895841727795, "DIST": 26.669602498811724, "LONG": 153.61369444444443, "LAT": -30.98047222222222, "ELEVATION": 20297118.0, "TYPE": "Satellite"}, {"NAME": "WILDBLUE-1", "CATALOGNUMBER": "29643", "CLASS": "U", "LAUNCHYEAR": "06", "LAUNCHNUMBER": "054", "LAUNCHPIECE": "A  ", "X": -14998450.916463498, "Y": -39409206.82967147, "Z": 128477.35019571958, "XS": -14.998450916463497, "YS": -39.409206829671476, "ZS": 0.1284773501957196, "DIST": 42.166996801608995, "LONG": -110.83594444444444, "LAT": 0.17475, "ELEVATION": 35788860.0, "TYPE": "Satellite"}, {"NAME": "AMC-18", "CATALOGNUMBER": "29644", "CLASS": "U", "LAUNCHYEAR": "06", "LAUNCHNUMBER": "054", "LAUNCHPIECE": "B  ", "X": 6576750.984797082, "Y": -41656893.36460919, "Z": 28248.167578955003, "XS": 6.576750984797082, "YS": -41.65689336460919, "ZS": 0.028248167578955003, "DIST": 42.172872990412, "LONG": -81.02825, "LAT": 0.03841666666666667, "ELEVATION": 35794736.0, "TYPE": "Satellite"}, {"NAME": "LAPAN-TUBSAT", "CATALOGNUMBER": "29709", "CLASS": "U", "LAUNCHYEAR": "07", "LAUNCHNUMBER": "001", "LAUNCHPIECE": "A  ", "X": -1306704.6019598246, "Y": 1020334.2501325123, "Z": 6783938.359381524, "XS": -1.3067046019598245, "YS": 1.0203342501325123, "ZS": 6.783938359381524, "DIST": 6.983579208591003, "LONG": 142.01566666666668, "LAT": 76.34766666666667, "ELEVATION": 625626.75, "TYPE": "Satellite"}, {"NAME": "CARTOSAT-2 (IRS-P7)", "CATALOGNUMBER": "29710", "CLASS": "U", "LAUNCHYEAR": "07", "LAUNCHNUMBER": "001", "LAUNCHPIECE": "B  ", "X": -461010.6865212643, "Y": 997078.6235927036, "Z": -6699265.672977534, "XS": -0.4610106865212643, "YS": 0.9970786235927036, "ZS": -6.699265672977534, "DIST": 6.788730160482699, "LONG": 114.814, "LAT": -80.74530555555556, "ELEVATION": 431420.4375, "TYPE": "Satellite"},