[{"NAME": "CALSPHERE 1", "CATALOGNUMBER": "00900", "CLASS": "U", "LAUNCHYEAR": "64", "LAUNCHNUMBER": "063", "LAUNCHPIECE": "C  ", "X": -3102050.758642411, "Y": 6579223.22881502, "Z": -1121612.2209368437, "XS": -3.102050758642411, "YS": 6.57922322881502, "ZS": -1.1216122209368438, "DIST": 7.359817333190272, "LONG": 115.2435, "LAT": -8.816194444444443, "ELEVATION": 982179.0, "TYPE": "Satellite"}, {"NAME": "CALSPHERE 2", "CATALOGNUMBER": "00902", "CLASS": "U", "LAUNCHYEAR": "64", "LAUNCHNUMBER": "063", "LAUNCHPIECE": "E  ", "X": -3513186.3219030327, "Y": 6478766.271453037, "Z": -1023126.6460730776, "XS": -3.513186321903033, "YS": 6.478766271453037, "ZS": -1.0231266460730777, "DIST": 7.440677298904233, "LONG": 118.46927777777778, "LAT": -7.9485, "ELEVATION": 1062946.25, "TYPE": "Satellite"}, {"NAME": "LCS 1", "CATALOGNUMBER": "01361", "CLASS": "U", "LAUNCHYEAR": "65", "LAUNCHNUMBER": "034", "LAUNCHPIECE": "C  ", "X": 172591.97167900222, "Y": 7898891.701351349, "Z": -4643079.233871082, "XS": 0.17259197167900223, "YS": 7.898891701351349, "ZS": -4.643079233871082, "DIST": 9.164085490127759, "LONG": 88.74827777777777, "LAT": -30.558611111111112, "ELEVATION": 2791450.25, "TYPE": "Satellite"}, {"NAME": "TEMPSAT 1", "CATALOGNUMBER": "01512", "CLASS": "U", "LAUNCHYEAR": "65", "LAUNCHNUMBER": "065", "LAUNCHPIECE": "E  ", "X": 1265311.4062680178, "Y": -3810641.3863953897, "Z": -6334079.596229489, "XS": 1.2653114062680177, "YS": -3.81064138639539, "ZS": -6.334079596229489, "DIST": 7.4995043210809635, "LONG": -71.63141666666667, "LAT": -57.776583333333335, "ELEVATION": 1136639.625, "TYPE": "Satellite"}, {"NAME": "CALSPHERE 4A", "CATALOGNUMBER": "01520", "CLASS": "U", "LAUNCHYEAR": "65", "LAUNCHNUMBER": "065", "LAUNCHPIECE": "H  ", "X": 543384.8685831438, "Y": 214481.19812186257, "Z": 7434160.570609909, "XS": 0.5433848685831438, "YS": 0.21448119812186256, "ZS": 7.434160570609909, "DIST": 7.457078026235474, "LONG": 21.539805555555557, "LAT": 85.53244444444444, "ELEVATION": 1100195.0, "TYPE": "Satellite"}, {"NAME": "OPS 5712 (P/L 160)", "CATALOGNUMBER": "02826", "CLASS": "U", "LAUNCHYEAR": "67", "LAUNCHNUMBER": "053", "LAUNCHPIECE": "A  ", "X": 4716021.888522647, "Y": 4968395.719494449, "Z": -1904989.4913127015, "XS": 4.716021888522647, "YS": 4.968395719494449, "ZS": -1.9049894913127015, "DIST": 7.110190112825909, "LONG": 46.49277777777778, "LAT": -15.630055555555556, "ELEVATION": 733594.375, "TYPE": "Satellite"}, {"NAME": "LES-5", "CATALOGNUMBER": "02866", "CLASS": "U", "LAUNCHYEAR": "67", "LAUNCHNUMBER": "066", "LAUNCHPIECE": "E  ", "X": 14816182.837781485, "Y": 36981105.42382578, "Z": 22477.096278675923, "XS": 14.816182837781485, "YS": 36.98110542382578, "ZS": 0.02247709627867592, "DIST": 39.83869899319686, "LONG": 68.16688888888889, "LAT": 0.03236111111111111, "ELEVATION": 33460562.0, "TYPE": "Satellite"}, {"NAME": "SURCAL 159", "CATALOGNUMBER": "02872", "CLASS": "U", "LAUNCHYEAR": "67", "LAUNCHNUMBER": "053", "LAUNCHPIECE": "F  ", "X": -1790635.7678211764, "Y": 2283171.7667040643, "Z": 6669876.991183132, "XS": -1.7906357678211764, "YS": 2.2831717667040645, "ZS": 6.669876991183132, "DIST": 7.273686056380853, "LONG": 128.10622222222221, "LAT": 66.61241666666666, "ELEVATION": 913542.6875, "TYPE": "Satellite"}, {"NAME": "OPS 5712 (P/L 153)", "CATALOGNUMBER": "02874", "CLASS": "U", "LAUNCHYEAR": "67", "LAUNCHNUMBER": "053", "LAUNCHPIECE": "H  ", "X": -7054994.325173205, "Y": 1313425.4612930075, "Z": -1244134.8039739777, "XS": -7.054994325173205, "YS": 1.3134254612930074, "ZS": -1.2441348039739777, "DIST": 7.283261822909996, "LONG": 169.45399999999998, "LAT": -9.892416666666668, "ELEVATION": 905751.375, "TYPE": "Satellite"}, {"NAME": "SURCAL 150B", "CATALOGNUMBER": "02909", "CLASS": "U", "LAUNCHYEAR": "67", "LAUNCHNUMBER": "053", "LAUNCHPIECE": "J  ", "X": -6108916.532958831, "Y": -2773784.7848190414, "Z": 2215676.3737361846, "XS": -6.108916532958831, "YS": -2.7737847848190413, "ZS": 2.2156763737361844, "DIST": 7.06554775175174, "LONG": -155.57933333333335, "LAT": 18.379277777777776, "ELEVATION": 689522.0, "TYPE": "Satellite"}, {"NAME": "OPS 3811 (DSP 2)", "CATALOGNUMBER": "05204", "CLASS": "U", "LAUNCHYEAR": "71", "LAUNCHNUMBER": "039", "LAUNCHPIECE": "A  ", "X": -31045507.91796433, "Y": -29317647.227308746, "Z": 1559310.9080869132, "XS": -31.045507917964333, "YS": -29.317647227308747, "ZS": 1.5593109080869132, "DIST": 42.7291405405888, "LONG": -136.63961111111112, "LAT": 2.0934444444444447, "ELEVATION": 36351032.0, "TYPE": "Satellite"}, {"NAME": "RIGIDSPHERE 2 (LCS 4)", "CATALOGNUMBER": "05398", "CLASS": "U", "LAUNCHYEAR": "71", "LAUNCHNUMBER": "067", "LAUNCHPIECE": "E  ", "X": -5319098.391142939, "Y": -3908882.346816266, "Z": -2770908.7542721224, "XS": -5.319098391142939, "YS": -3.908882346816266, "ZS": -2.7709087542721225, "DIST": 7.158917810703873, "LONG": -143.68869444444442, "LAT": -22.894027777777776, "ELEVATION": 783996.25, "TYPE": "Satellite"}, {"NAME": "OSCAR 7 (AO-7)", "CATALOGNUMBER": "07530", "CLASS": "U", "LAUNCHYEAR": "74", "LAUNCHNUMBER": "089", "LAUNCHPIECE": "B  ", "X": -1439790.664687218, "Y": -6180344.8065223815, "Z": -4580759.718004183, "XS": -1.4397906646872178, "YS": -6.180344806522381, "ZS": -4.580759718004183, "DIST": 7.826430775246044, "LONG": -103.11388888888888, "LAT": -35.972500000000004, "ELEVATION": 1455637.75, "TYPE": "Satellite"}, {"NAME": "STARLETTE", "CATALOGNUMBER": "07646", "CLASS": "U", "LAUNCHYEAR": "75", "LAUNCHNUMBER": "010", "LAUNCHPIECE": "A  ", "X": -4831701.247366205, "Y": -974507.5791944057, "Z": -5276951.457182129, "XS": -4.831701247366205, "YS": -0.9745075791944057, "ZS": -5.276951457182129, "DIST": 7.220887663380734, "LONG": -168.5969722222222, "LAT": -47.12188888888889, "ELEVATION": 854193.8125, "TYPE": "Satellite"}, {"NAME": "LAGEOS 1", "CATALOGNUMBER": "08820", "CLASS": "U", "LAUNCHYEAR": "76", "LAUNCHNUMBER": "039", "LAUNCHPIECE": "A  ", "X": -10153553.970158786, "Y": -2687577.5737295956, "Z": 6294004.143382151, "XS": -10.153553970158786, "YS": -2.6875775737295955, "ZS": 6.294004143382151, "DIST": 12.244681277871353, "LONG": -165.17419444444445, "LAT": 31.02025, "ELEVATION": 5872202.0, "TYPE": "Satellite"}, {"NAME": "OPS 8701 (DSP 10)", "CATALOGNUMBER": "13086", "CLASS": "U", "LAUNCHYEAR": "82", "LAUNCHNUMBER": "019", "LAUNCHPIECE": "A  ", "X": 12223480.247493774, "Y": 40541165.239132345, "Z": -5805118.1790142665, "XS": 12.223480247493773, "YS": 40.54116523913235, "ZS": -5.805118179014267, "DIST": 42.73989875256872, "LONG": 73.22152777777778, "LAT": -7.814, "ELEVATION": 36362156.0, "TYPE": "Satellite"}, {"NAME": "PHASE 3B (AO-10)", "CATALOGNUMBER": "14129", "CLASS": "U", "LAUNCHYEAR": "83", "LAUNCHNUMBER": "058", "LAUNCHPIECE": "B  ", "X": 5126776.258716348, "Y": -40081495.09430819, "Z": -10876664.652400654, "XS": 5.1267762587163475, "YS": -40.08149509430819, "ZS": -10.876664652400654, "DIST": 41.84628917553827, "LONG": -82.71094444444445, "LAT": -15.079972222222223, "ELEVATION": 35469596.0, "TYPE": "Satellite"}, {"NAME": "UOSAT 2 (UO-11)", "CATALOGNUMBER": "14781", "CLASS": "U", "LAUNCHYEAR": "84", "LAUNCHNUMBER": "021", "LAUNCHPIECE": "B  ", "X": 1924299.4728421776, "Y": 5213364.250133426, "Z": 4256152.632711913, "XS": 1.9242994728421776, "YS": 5.213364250133426, "ZS": 4.256152632711913, "DIST": 6.999780746472742, "LONG": 69.74044444444445, "LAT": 37.61716666666667, "ELEVATION": 629572.0625, "TYPE": "Satellite"}, {"NAME": "AJISAI (EGS)", "CATALOGNUMBER": "16908", "CLASS": "U", "LAUNCHYEAR": "86", "LAUNCHNUMBER": "061", "LAUNCHPIECE": "A  ", "X": -3626153.5927340384, "Y": 6963484.623245149, "Z": -380267.0745355622, "XS": -3.6261535927340383, "YS": 6.963484623245149, "ZS": -0.3802670745355622, "DIST": 7.860261511186854, "LONG": 117.50772222222223, "LAT": -2.7880833333333332, "ELEVATION": 1482174.75, "TYPE": "Satellite"}, {"NAME": "TDRS 3", "CATALOGNUMBER": "19548", "CLASS": "U", "LAUNCHYEAR": "88", "LAUNCHNUMBER": "091", "LAUNCHPIECE": "B  ", "X": -8663193.78649804, "Y": -41033384.37089036, "Z": 3028963.1116189794, "XS": -8.66319378649804, "YS": -41.03338437089036, "ZS": 3.0289631116189795, "DIST": 42.047166100026246, "LONG": -101.92152777777778, "LAT": 4.135194444444445, "ELEVATION": 35669140.0, "TYPE": "Satellite"}, {"NAME": "COSMOS 1989 (ETALON 1)", "CATALOGNUMBER": "19751", "CLASS": "U", "LAUNCHYEAR": "89", "LAUNCHNUMBER": "001", "LAUNCHPIECE": "C  ", "X": -24626690.691805087, "Y": -4848516.152564704, "Z": -4208883.497220207, "XS": -24.626690691805088, "YS": -4.848516152564704, "ZS": -4.208883497220207, "DIST": 25.449886121644884, "LONG": -168.8620277777778, "LAT": -9.534972222222223, "ELEVATION": 19072334.0, "TYPE": "Satellite"}, {"NAME": "COSMOS 2024 (ETALON 2)", "CATALOGNUMBER": "20026", "CLASS": "U", "LAUNCHYEAR": "89", "LAUNCHNUMBER": "039", "LAUNCHPIECE": "C  ", "X": 14713149.391392535, "Y": 12834897.293871464, "Z": 16387821.094759965, "XS": 14.713149391392534, "YS": 12.834897293871464, "ZS": 16.387821094759964, "DIST": 25.490626390724948, "LONG": 41.09955555555556, "LAT": 40.05544444444444, "ELEVATION": 19121328.0, "TYPE": "Satellite"}, {"NAME": "FLTSATCOM 8 (USA 46)", "CATALOGNUMBER": "20253", "CLASS": "U", "LAUNCHYEAR": "89", "LAUNCHNUMBER": "077", "LAUNCHPIECE": "A  ", "X": 15296370.753175965, "Y": 39244067.95171167, "Z": 156077.6352827226, "XS": 15.296370753175964, "YS": 39.24406795171167, "ZS": 0.1560776352827226, "DIST": 42.12006870656096, "LONG": 68.70538888888889, "LAT": 0.2125277777777778, "ELEVATION": 35741932.0, "TYPE": "Satellite"}, {"NAME": "LUSAT (LO-19)", "CATALOGNUMBER": "20442", "CLASS": "U", "LAUNCHYEAR": "90", "LAUNCHNUMBER": "005", "LAUNCHPIECE": "G  ", "X": 4327932.330004593, "Y": 5204840.525345173, "Z": -2343596.776603621, "XS": 4.327932330004593, "YS": 5.204840525345173, "ZS": -2.3435967766036208, "DIST": 7.16336575910244, "LONG": 50.25577777777778, "LAT": -19.20286111111111, "ELEVATION": 787526.5, "TYPE": "Satellite"}, {"NAME": "HST", "CATALOGNUMBER": "20580", "CLASS": "U", "LAUNCHYEAR": "90", "LAUNCHNUMBER": "037", "LAUNCHPIECE": "B  ", "X": 4777555.301900337, "Y": -4986525.904683575, "Z": -338257.2343049326, "XS": 4.777555301900337, "YS": -4.986525904683575, "ZS": -0.3382572343049326, "DIST": 6.914108273476485, "LONG": -46.226055555555554, "LAT": -2.8215833333333333, "ELEVATION": 536022.6875, "TYPE": "Satellite"}, {"NAME": "SKYNET 4C", "CATALOGNUMBER": "20776", "CLASS": "U", "LAUNCHYEAR": "90", "LAUNCHNUMBER": "079", "LAUNCHPIECE": "A  ", "X": -90983.73687523547, "Y": 42115605.168867536, "Z": -2224714.585590443, "XS": -0.09098373687523546, "YS": 42.11560516886754, "ZS": -2.2247145855904433, "DIST": 42.17442153447581, "LONG": 90.12377777777778, "LAT": -3.0268333333333333, "ELEVATION": 35796344.0, "TYPE": "Satellite"}, {"NAME": "USA 65 (DSP 15)", "CATALOGNUMBER": "20929", "CLASS": "U", "LAUNCHYEAR": "90", "LAUNCHNUMBER": "095", "LAUNCHPIECE": "A  ", "X": -26237155.87525629, "Y": 32421877.57746812, "Z": -9253776.711743712, "XS": -26.23715587525629, "YS": 32.421877577468116, "ZS": -9.253776711743713, "DIST": 42.72234634827113, "LONG": 128.98125, "LAT": -12.521694444444444, "ELEVATION": 36345212.0, "TYPE": "Satellite"}, {"NAME": "TDRS 5", "CATALOGNUMBER": "21639", "CLASS": "U", "LAUNCHYEAR": "91", "LAUNCHNUMBER": "054", "LAUNCHPIECE": "B  ", "X": -17343565.478332367, "Y": -38339261.10341111, "Z": -1182480.1093833947, "XS": -17.343565478332366, "YS": -38.33926110341111, "ZS": -1.1824801093833948, "DIST": 42.096276137751445, "LONG": -114.3406111111111, "LAT": -1.6112777777777778, "ELEVATION": 35718156.0, "TYPE": "Satellite"}, {"NAME": "USA 75 (DSP 16)", "CATALOGNUMBER": "21805", "CLASS": "U", "LAUNCHYEAR": "91", "LAUNCHNUMBER": "080", "LAUNCHPIECE": "B  ", "X": -26818750.65448618, "Y": -32829221.281462133, "Z": -2825568.008492698, "XS": -26.81875065448618, "YS": -32.82922128146213, "ZS": -2.825568008492698, "DIST": 42.485138474357434, "LONG": -129.24597222222224, "LAT": -3.8172222222222225, "ELEVATION": 36107096.0, "TYPE": "Satellite"}, {"NAME": "LAGEOS 2", "CATALOGNUMBER": "22195", "CLASS": "U", "LAUNCHYEAR": "92", "LAUNCHNUMBER": "070", "LAUNCHPIECE": "B  ", "X": 9290164.964897405, "Y": 7536019.640557041, "Z": 2955752.8167301095, "XS": 9.290164964897405, "YS": 7.536019640557042, "ZS": 2.9557528167301097, "DIST": 12.322143961643876, "LONG": 39.048361111111106, "LAT": 13.925444444444445, "ELEVATION": 5945239.5, "TYPE": "Satellite"}, {"NAME": "TDRS 6", "CATALOGNUMBER": "22314", "CLASS": "U", "LAUNCHYEAR": "93", "LAUNCHNUMBER": "003", "LAUNCHPIECE": "B  ", "X": -4647244.651780433, "Y": -41909597.76696067, "Z": 970143.6665074924, "XS": -4.647244651780433, "YS": -41.90959776696067, "ZS": 0.9701436665074924, "DIST": 42.17762969366109, "LONG": -96.32752777777777, "LAT": 1.3193333333333332, "ELEVATION": 35799504.0, "TYPE": "Satellite"}, {"NAME": "SCD 1", "CATALOGNUMBER": "22490", "CLASS": "U", "LAUNCHYEAR": "93", "LAUNCHNUMBER": "009", "LAUNCHPIECE": "B  ", "X": -5306889.090219632, "Y": -4038624.4521034714, "Z": -2520684.7559132315, "XS": -5.306889090219632, "YS": -4.0386244521034715, "ZS": -2.5206847559132317, "DIST": 7.129334535544925, "LONG": -142.72830555555555, "LAT": -20.81958333333333, "ELEVATION": 753880.9375, "TYPE": "Satellite"}, {"NAME": "UFO 2 (USA 95)", "CATALOGNUMBER": "22787", "CLASS": "U", "LAUNCHYEAR": "93", "LAUNCHNUMBER": "056", "LAUNCHPIECE": "A  ", "X": 2980659.812386063, "Y": 42058672.940210745, "Z": -710863.4390697014, "XS": 2.980659812386063, "YS": 42.05867294021075, "ZS": -0.7108634390697014, "DIST": 42.17015092737747, "LONG": 85.94627777777778, "LAT": -0.9668611111111111, "ELEVATION": 35792020.0, "TYPE": "Satellite"}, {"NAME": "STELLA", "CATALOGNUMBER": "22824", "CLASS": "U", "LAUNCHYEAR": "93", "LAUNCHNUMBER": "061", "LAUNCHPIECE": "B  ", "X": -2633283.905985395, "Y": 6666340.224632603, "Z": -449662.82346523344, "XS": -2.6332839059853947, "YS": 6.666340224632603, "ZS": -0.44966282346523345, "DIST": 7.181676181427501, "LONG": 111.55461111111111, "LAT": -3.6111944444444446, "ELEVATION": 803623.375, "TYPE": "Satellite"}, {"NAME": "EYESAT A (AO-27)", "CATALOGNUMBER": "22825", "CLASS": "U", "LAUNCHYEAR": "93", "LAUNCHNUMBER": "061", "LAUNCHPIECE": "C  ", "X": -2948771.1369346865, "Y": 5775558.173258518, "Z": -3058622.081084475, "XS": -2.9487711369346865, "YS": 5.775558173258518, "ZS": -3.058622081084475, "DIST": 7.169901844907632, "LONG": 117.04705555555556, "LAT": -25.383694444444444, "ELEVATION": 795670.125, "TYPE": "Satellite"}, {"NAME": "ITAMSAT (IO-26)", "CATALOGNUMBER": "22826", "CLASS": "U", "LAUNCHYEAR": "93", "LAUNCHNUMBER": "061", "LAUNCHPIECE": "D  ", "X": 4031625.2453507227, "Y": -5787835.917415878, "Z": -1338845.2577646214, "XS": 4.031625245350723, "YS": -5.787835917415878, "ZS": -1.3388452577646215, "DIST": 7.179523197964987, "LONG": -55.140138888888885, "LAT": -10.810277777777777, "ELEVATION": 802132.9375, "TYPE": "Satellite"}, {"NAME": "USA 99 (MILSTAR-1 1)", "CATALOGNUMBER": "22988", "CLASS": "U", "LAUNCHYEAR": "94", "LAUNCHNUMBER": "009", "LAUNCHPIECE": "A  ", "X": -12499250.992990527, "Y": -39639745.013655886, "Z": -7104358.59715418, "XS": -12.499250992990527, "YS": -39.63974501365588, "ZS": -7.10435859715418, "DIST": 42.166486351252814, "LONG": -107.50116666666666, "LAT": -9.709305555555556, "ELEVATION": 35788956.0, "TYPE": "Satellite"}, {"NAME": "RADIO ROSTO (RS-15)", "CATALOGNUMBER": "23439", "CLASS": "U", "LAUNCHYEAR": "94", "LAUNCHNUMBER": "085", "LAUNCHPIECE": "A  ", "X": -3900088.057802034, "Y": -7364974.298506686, "Z": 86920.70523546138, "XS": -3.900088057802034, "YS": -7.364974298506686, "ZS": 0.08692070523546139, "DIST": 8.334331915952996, "LONG": -117.90325, "LAT": 0.6006388888888888, "ELEVATION": 1956197.25, "TYPE": "Satellite"}, {"NAME": "UFO 4 (USA 108)", "CATALOGNUMBER": "23467", "CLASS": "U", "LAUNCHYEAR": "95", "LAUNCHNUMBER": "003", "LAUNCHPIECE": "A  ", "X": -35938284.54420355, "Y": -21394599.219388288, "Z": -5680860.278542686, "XS": -35.93828454420355, "YS": -21.394599219388287, "ZS": -5.680860278542686, "DIST": 42.20854587927323, "LONG": -149.23402777777778, "LAT": -7.742666666666667, "ELEVATION": 35830796.0, "TYPE": "Satellite"}, {"NAME": "AMSC 1", "CATALOGNUMBER": "23553", "CLASS": "U", "LAUNCHYEAR": "95", "LAUNCHNUMBER": "019", "LAUNCHPIECE": "A  ", "X": -9971095.863771075, "Y": -40900062.91005065, "Z": -2787046.8418978616, "XS": -9.971095863771076, "YS": -40.90006291005065, "ZS": -2.787046841897862, "DIST": 42.19011174279521, "LONG": -103.70097222222222, "LAT": -3.7914999999999996, "ELEVATION": 35812068.0, "TYPE": "Satellite"}, {"NAME": "TDRS 7", "CATALOGNUMBER": "23613", "CLASS": "U", "LAUNCHYEAR": "95", "LAUNCHNUMBER": "035", "LAUNCHPIECE": "B  ", "X": 14509606.7192297, "Y": 39632037.82338534, "Z": 381576.24184631533, "XS": 14.5096067192297, "YS": 39.632037823385346, "ZS": 0.38157624184631533, "DIST": 42.206311253286565, "LONG": 69.89191666666667, "LAT": 0.5185277777777778, "ELEVATION": 35828176.0, "TYPE": "Satellite"}, {"NAME": "USA 115 (MILSTAR-1 2)", "CATALOGNUMBER": "23712", "CLASS": "U", "LAUNCHYEAR": "95", "LAUNCHNUMBER": "060", "LAUNCHPIECE": "A  ", "X": -7500245.470097582, "Y": -41509539.669736065, "Z": -521266.5066444673, "XS": -7.500245470097582, "YS": -41.509539669736064, "ZS": -0.5212665066444673, "DIST": 42.18491773698345, "LONG": -100.24211111111111, "LAT": -0.7087222222222223, "ELEVATION": 35806784.0, "TYPE": "Satellite"}, {"NAME": "POLAR", "CATALOGNUMBER": "23802", "CLASS": "U", "LAUNCHYEAR": "96", "LAUNCHNUMBER": "013", "LAUNCHPIECE": "A  ", "X": 11149546.890099572, "Y": -19099522.91477779, "Z": 21452760.080650043, "XS": 11.149546890099572, "YS": -19.09952291477779, "ZS": 21.452760080650044, "DIST": 30.811119526959466, "LONG": -59.72530555555556, "LAT": 44.168, "ELEVATION": 24443348.0, "TYPE": "Satellite"}, {"NAME": "INMARSAT 3-F1", "CATALOGNUMBER": "23839", "CLASS": "U", "LAUNCHYEAR": "96", "LAUNCHNUMBER": "020", "LAUNCHPIECE": "A  ", "X": -6490910.832174998, "Y": 41615733.8625206, "Z": 2841586.9369853963, "XS": -6.490910832174998, "YS": 41.6157338625206, "ZS": 2.8415869369853963, "DIST": 42.2146401698254, "LONG": 98.86513888888888, "LAT": 3.8635555555555556, "ELEVATION": 35836600.0, "TYPE": "Satellite"}, {"NAME": "JAS-2 (FO-29)", "CATALOGNUMBER": "24278", "CLASS": "U", "LAUNCHYEAR": "96", "LAUNCHNUMBER": "046", "LAUNCHPIECE": "B  ", "X": 1687195.599023134, "Y": 4943719.544588295, "Z": -5487183.431244914, "XS": 1.687195599023134, "YS": 4.943719544588295, "ZS": -5.487183431244914, "DIST": 7.576026262694451, "LONG": 71.15622222222223, "LAT": -46.57069444444445, "ELEVATION": 1209128.5, "TYPE": "Satellite"}, {"NAME": "INMARSAT 3-F2", "CATALOGNUMBER": "24307", "CLASS": "U", "LAUNCHYEAR": "96", "LAUNCHNUMBER": "053", "LAUNCHPIECE": "A  ", "X": 39801491.258173406, "Y": -13978112.565739213, "Z": 2036615.9031110804, "XS": 39.80149125817341, "YS": -13.978112565739213, "ZS": 2.0366159031110804, "DIST": 42.233803305074666, "LONG": -19.351055555555558, "LAT": 2.7668055555555555, "ELEVATION": 35855716.0, "TYPE": "Satellite"}, {"NAME": "INMARSAT 3-F3", "CATALOGNUMBER": "24674", "CLASS": "U", "LAUNCHYEAR": "96", "LAUNCHNUMBER": "070", "LAUNCHPIECE": "A  ", "X": -30887352.286001842, "Y": -28467667.60081281, "Z": -4702634.552575253, "XS": -30.887352286001843, "YS": -28.46766760081281, "ZS": -4.702634552575253, "DIST": 42.26761646467689, "LONG": -137.33444444444444, "LAT": -6.394277777777778, "ELEVATION": 35889744.0, "TYPE": "Satellite"}, {"NAME": "GALAXY 25 (G-25)", "CATALOGNUMBER": "24812", "CLASS": "U", "LAUNCHYEAR": "97", "LAUNCHNUMBER": "026", "LAUNCHPIECE": "A  ", "X": 8021961.4141852055, "Y": -41719977.03996727, "Z": -1935012.6164511314, "XS": 8.021961414185206, "YS": -41.71997703996727, "ZS": -1.9350126164511314, "DIST": 42.528256759146586, "LONG": -79.11594444444444, "LAT": -2.6104444444444446, "ELEVATION": 36150164.0, "TYPE": "Satellite"}, {"NAME": "NAVSTAR 43 (USA 132)", "CATALOGNUMBER": "24876", "CLASS": "U", "LAUNCHYEAR": "97", "LAUNCHNUMBER": "035", "LAUNCHPIECE": "A  ", "X": -22323053.188495167, "Y": -13310320.330132056, "Z": 5878720.835572116, "XS": -22.323053188495166, "YS": -13.310320330132056, "ZS": 5.878720835572116, "DIST": 26.646626233159434, "LONG": -149.1941111111111, "LAT": 12.76511111111111, "ELEVATION": 20269530.0, "TYPE": "Satellite"}, {"NAME": "INTELSAT 5 (IS-5)", "CATALOGNUMBER": "24916", "CLASS": "U", "LAUNCHYEAR": "97", "LAUNCHNUMBER": "046", "LAUNCHPIECE": "A  ", "X": -41906252.16112321, "Y": -1682111.480522698, "Z": -4390526.46148302, "XS": -41.906252161123206, "YS": -1.682111480522698, "ZS": -4.39052646148302, "DIST": 42.16918533518916, "LONG": -177.70138888888889, "LAT": -5.9823055555555555, "ELEVATION": 35791280.0, "TYPE": "Satellite"}, {"NAME": "FORTE", "CATALOGNUMBER": "24920", "CLASS": "U", "LAUNCHYEAR": "97", "LAUNCHNUMBER": "047", "LAUNCHPIECE": "A  ", "X": -5916046.048441743, "Y": -4101516.121684615, "Z": -128588.19015174283, "XS": -5.916046048441743, "YS": -4.101516121684615, "ZS": -0.12858819015174283, "DIST": 7.1999007122576675, "LONG": -145.26694444444445, "LAT": -1.0294444444444444, "ELEVATION": 821770.5625, "TYPE": "Satellite"}, {"NAME": "AMC-3 (GE-3)", "CATALOGNUMBER": "24936", "CLASS": "U", "LAUNCHYEAR": "97", "LAUNCHNUMBER": "050", "LAUNCHPIECE": "A  ", "X": -13642030.998817982, "Y": -39828791.74353745, "Z": -2236599.520970866, "XS": -13.642030998817981, "YS": -39.82879174353745, "ZS": -2.236599520970866, "DIST": 42.15969685540913, "LONG": -108.90719444444444, "LAT": -3.044083333333333, "ELEVATION": 35781620.0, "TYPE": "Satellite"}, {"NAME": "USA 134", "CATALOGNUMBER": "25019", "CLASS": "U", "LAUNCHYEAR": "97", "LAUNCHNUMBER": "065", "LAUNCHPIECE": "A  ", "X": -9095114.972770007, "Y": -41112749.983238995, "Z": -2385219.216441167, "XS": -9.095114972770007, "YS": -41.11274998323899, "ZS": -2.385219216441167, "DIST": 42.17426464400658, "LONG": -102.47427777777777, "LAT": -3.2454444444444444, "ELEVATION": 35796196.0, "TYPE": "Satellite"}, {"NAME": "NAVSTAR 44 (USA 135)", "CATALOGNUMBER": "25030", "CLASS": "U", "LAUNCHYEAR": "97", "LAUNCHNUMBER": "067", "LAUNCHPIECE": "A  ", "X": 7582549.868954481, "Y": 19650183.45224696, "Z": -17935635.07334746, "XS": 7.582549868954481, "YS": 19.65018345224696, "ZS": -17.93563507334746, "DIST": 27.66426897111929, "LONG": 68.89955555555557, "LAT": -40.459694444444445, "ELEVATION": 21295120.0, "TYPE": "Satellite"}, {"NAME": "ORBCOMM FM11", "CATALOGNUMBER": "25114", "CLASS": "U", "LAUNCHYEAR": "97", "LAUNCHNUMBER": "084", "LAUNCHPIECE": "C  ", "X": 613461.490379076, "Y": 5144006.256848354, "Z": -4923411.175713864, "XS": 0.6134614903790759, "YS": 5.144006256848354, "ZS": -4.9234111757138646, "DIST": 7.146825377453776, "LONG": 83.19916666666667, "LAT": -43.713944444444444, "ELEVATION": 778860.0, "TYPE": "Satellite"}, {"NAME": "ORBCOMM FM06", "CATALOGNUMBER": "25118", "CLASS": "U", "LAUNCHYEAR": "97", "LAUNCHNUMBER": "084", "LAUNCHPIECE": "G  ", "X": 4286923.981893976, "Y": 4366180.851195627, "Z": -3686986.3173146155, "XS": 4.286923981893977, "YS": 4.366180851195627, "ZS": -3.6869863173146156, "DIST": 7.1438869361119, "LONG": 45.52477777777778, "LAT": -31.223194444444445, "ELEVATION": 771464.0625, "TYPE": "Satellite"}, {"NAME": "INMARSAT 3-F5", "CATALOGNUMBER": "25153", "CLASS": "U", "LAUNCHYEAR": "98", "LAUNCHNUMBER": "006", "LAUNCHPIECE": "B  ", "X": -9825305.563612884, "Y": -40892328.039793245, "Z": -2974596.110116187, "XS": -9.825305563612885, "YS": -40.89232803979325, "ZS": -2.974596110116187, "DIST": 42.1612066235152, "LONG": -103.5105, "LAT": -4.049833333333333, "ELEVATION": 35783176.0, "TYPE": "Satellite"}, {"NAME": "ORBCOMM FM04", "CATALOGNUMBER": "25159", "CLASS": "U", "LAUNCHYEAR": "98", "LAUNCHNUMBER": "007", "LAUNCHPIECE": "C  ", "X": -1315987.3512478136, "Y": -2409878.930763719, "Z": 6623972.519676144, "XS": -1.3159873512478135, "YS": -2.409878930763719, "ZS": 6.623972519676144, "DIST": 7.170519584451872, "LONG": -118.63808333333334, "LAT": 67.60541666666666, "ELEVATION": 810643.0, "TYPE": "Satellite"}, {"NAME": "CELESTIS-02 & TAURUS R/B", "CATALOGNUMBER": "25160", "CLASS": "U", "LAUNCHYEAR": "98", "LAUNCHNUMBER": "007", "LAUNCHPIECE": "D  ", "X": 4544435.438541178, "Y": 4366122.55548894, "Z": 3397049.964872078, "XS": 4.544435438541178, "YS": 4.36612255548894, "ZS": 3.397049964872078, "DIST": 7.159250525610597, "LONG": 43.85358333333333, "LAT": 28.46997222222222, "ELEVATION": 785944.3125, "TYPE": "Satellite"}, {"NAME": "NOAA 15", "CATALOGNUMBER": "25338", "CLASS": "U", "LAUNCHYEAR": "98", "LAUNCHNUMBER": "030", "LAUNCHPIECE": "A  ", "X": -1288731.319425494, "Y": 5104503.5354316635, "Z": -4907027.939854804, "XS": -1.288731319425494, "YS": 5.104503535431664, "ZS": -4.907027939854804, "DIST": 7.196923506569887, "LONG": 104.16933333333334, "LAT": -43.15613888888889, "ELEVATION": 828750.5625, "TYPE": "Satellite"}, {"NAME": "TECHSAT 1B (GO-32)", "CATALOGNUMBER": "25397", "CLASS": "U", "LAUNCHYEAR": "98", "LAUNCHNUMBER": "043", "LAUNCHPIECE": "D  ", "X": 5460281.996378268, "Y": 3362067.7373660672, "Z": -3265612.879419169, "XS": 5.460281996378268, "YS": 3.3620677373660675, "ZS": -3.265612879419169, "DIST": 7.195999334966533, "LONG": 31.621916666666667, "LAT": -27.126416666666668, "ELEVATION": 822281.3125, "TYPE": "Satellite"}, {"NAME": "ORBCOMM FM19", "CATALOGNUMBER": "25415", "CLASS": "U", "LAUNCHYEAR": "98", "LAUNCHNUMBER": "046", "LAUNCHPIECE": "C  ", "X": 4197173.728848606, "Y": -5787782.154905845, "Z": -402770.074086255, "XS": 4.197173728848607, "YS": -5.7877821549058455, "ZS": -0.402770074086255, "DIST": 7.160789992407466, "LONG": -54.05119444444445, "LAT": -3.2436944444444444, "ELEVATION": 782720.9375, "TYPE": "Satellite"}, {"NAME": "ORBCOMM FM20", "CATALOGNUMBER": "25416", "CLASS": "U", "LAUNCHYEAR": "98", "LAUNCHNUMBER": "046", "LAUNCHPIECE": "D  ", "X": 2495315.349497329, "Y": 4636516.534224307, "Z": 4840361.327553117, "XS": 2.495315349497329, "YS": 4.636516534224307, "ZS": 4.840361327553117, "DIST": 7.152131294016081, "LONG": 61.71141666666667, "LAT": 42.76266666666667, "ELEVATION": 783811.75, "TYPE": "Satellite"}, {"NAME": "ORBCOMM FM13", "CATALOGNUMBER": "25420", "CLASS": "U", "LAUNCHYEAR": "98", "LAUNCHNUMBER": "046", "LAUNCHPIECE": "H  ", "X": -6106227.122834838, "Y": 977081.4462163395, "Z": -3618043.845403289, "XS": -6.106227122834838, "YS": 0.9770814462163395, "ZS": -3.618043845403289, "DIST": 7.164561333078575, "LONG": 170.90894444444444, "LAT": -30.480194444444447, "ELEVATION": 791895.25, "TYPE": "Satellite"}, {"NAME": "ASTRA 2A", "CATALOGNUMBER": "25462", "CLASS": "U", "LAUNCHYEAR": "98", "LAUNCHNUMBER": "050", "LAUNCHPIECE": "A  ", "X": 3256964.1371595464, "Y": 41947817.61180948, "Z": 2697958.7452950506, "XS": 3.2569641371595464, "YS": 41.94781761180948, "ZS": 2.6979587452950504, "DIST": 42.16048148652587, "LONG": 85.56027777777777, "LAT": 3.672722222222222, "ELEVATION": 35782432.0, "TYPE": "Satellite"}, {"NAME": "ORBCOMM FM27", "CATALOGNUMBER": "25481", "CLASS": "U", "LAUNCHYEAR": "98", "LAUNCHNUMBER": "053", "LAUNCHPIECE": "G  ", "X": -4828190.008333507, "Y": -5217541.90323548, "Z": -873350.681760892, "XS": -4.828190008333507, "YS": -5.21754190323548, "ZS": -0.873350681760892, "DIST": 7.162185677704945, "LONG": -132.78044444444444, "LAT": -7.045611111111111, "ELEVATION": 784368.0, "TYPE": "Satellite"}, {"NAME": "SCD 2", "CATALOGNUMBER": "25504", "CLASS": "U", "LAUNCHYEAR": "98", "LAUNCHNUMBER": "060", "LAUNCHPIECE": "A  ", "X": 6795379.14574175, "Y": -255334.53592286198, "Z": -2085881.6539500703, "XS": 6.79537914574175, "YS": -0.255334535922862, "ZS": -2.08588165395007, "DIST": 7.112895031834949, "LONG": -2.151861111111111, "LAT": -17.149777777777775, "ELEVATION": 736604.375, "TYPE": "Satellite"}, {"NAME": "ISS (ZARYA)", "CATALOGNUMBER": "25544", "CLASS": "U", "LAUNCHYEAR": "98", "LAUNCHNUMBER": "067", "LAUNCHPIECE": "A  ", "X": 4253513.736868447, "Y": -563521.0559286701, "Z": 5295133.7384235505, "XS": 4.253513736868447, "YS": -0.5635210559286701, "ZS": 5.295133738423551, "DIST": 6.815304571183514, "LONG": -7.546805555555555, "LAT": 51.15763888888889, "ELEVATION": 450099.875, "TYPE": "Satellite"}, {"NAME": "SWAS", "CATALOGNUMBER": "25560", "CLASS": "U", "LAUNCHYEAR": "98", "LAUNCHNUMBER": "071", "LAUNCHPIECE": "A  ", "X": -2876169.634860137, "Y": -4194207.4624734465, "Z": 4759953.052692995, "XS": -2.876169634860137, "YS": -4.194207462473447, "ZS": 4.759953052692995, "DIST": 6.965693150764022, "LONG": -124.44030555555555, "LAT": 43.280944444444444, "ELEVATION": 597565.625, "TYPE": "Satellite"}, {"NAME": "SKYNET 4E", "CATALOGNUMBER": "25639", "CLASS": "U", "LAUNCHYEAR": "99", "LAUNCHNUMBER": "009", "LAUNCHPIECE": "B  ", "X": 36898155.61289067, "Y": 19136514.720197983, "Z": 7168772.842017002, "XS": 36.89815561289067, "YS": 19.136514720197983, "ZS": 7.1687728420170025, "DIST": 42.179039668179854, "LONG": 27.41263888888889, "LAT": 9.79525, "ELEVATION": 35801520.0, "TYPE": "Satellite"}, {"NAME": "LANDSAT 7", "CATALOGNUMBER": "25682", "CLASS": "U", "LAUNCHYEAR": "99", "LAUNCHNUMBER": "020", "LAUNCHPIECE": "A  ", "X": 4334890.041430614, "Y": -5592200.481670142, "Z": 78135.20280305011, "XS": 4.334890041430614, "YS": -5.592200481670142, "ZS": 0.07813520280305011, "DIST": 7.076021693607443, "LONG": -52.218333333333334, "LAT": 0.6365277777777778, "ELEVATION": 697887.3125, "TYPE": "Satellite"}, {"NAME": "DLR-TUBSAT", "CATALOGNUMBER": "25757", "CLASS": "U", "LAUNCHYEAR": "99", "LAUNCHNUMBER": "029", "LAUNCHPIECE": "B  ", "X": -4158006.345913843, "Y": -1575399.1462390705, "Z": 5540810.294516755, "XS": -4.158006345913843, "YS": -1.5753991462390704, "ZS": 5.540810294516755, "DIST": 7.104328114779992, "LONG": -159.2491388888889, "LAT": 51.421499999999995, "ELEVATION": 739221.0, "TYPE": "Satellite"}, {"NAME": "CXO", "CATALOGNUMBER": "25867", "CLASS": "U", "LAUNCHYEAR": "99", "LAUNCHNUMBER": "040", "LAUNCHPIECE": "B  ", "X": -97767250.97314416, "Y": 45064423.53514684, "Z": 54631748.266143434, "XS": -97.76725097314416, "YS": 45.06442353514684, "ZS": 54.63174826614343, "DIST": 120.72226617329596, "LONG": 155.25333333333333, "LAT": 26.915, "ELEVATION": 114348504.0, "TYPE": "Satellite"}, {"NAME": "ABS-6", "CATALOGNUMBER": "25924", "CLASS": "U", "LAUNCHYEAR": "99", "LAUNCHNUMBER": "053", "LAUNCHPIECE": "A  ", "X": -35514339.45601891, "Y": 22692964.568059627, "Z": 188750.94067784332, "XS": -35.51433945601891, "YS": 22.692964568059626, "ZS": 0.18875094067784332, "DIST": 42.14587257137, "LONG": 147.42222222222222, "LAT": 0.2568611111111111, "ELEVATION": 35767736.0, "TYPE": "Satellite"}, {"NAME": "NAVSTAR 46 (USA 145)", "CATALOGNUMBER": "25933", "CLASS": "U", "LAUNCHYEAR": "99", "LAUNCHNUMBER": "055", "LAUNCHPIECE": "A  ", "X": 14407108.74998964, "Y": -7285113.063302644, "Z": 20773396.0132263, "XS": 14.40710874998964, "YS": -7.285113063302644, "ZS": 20.7733960132263, "DIST": 26.30915499976115, "LONG": -26.823944444444443, "LAT": 52.192166666666665, "ELEVATION": 19944350.0, "TYPE": "Satellite"}, {"NAME": "UFO 10 (USA 146)", "CATALOGNUMBER": "25967", "CLASS": "U", "LAUNCHYEAR": "99", "LAUNCHNUMBER": "063", "LAUNCHPIECE": "A  ", "X": 28434017.671978828, "Y": -30976544.743596468, "Z": 3099923.2746251747, "XS": 28.43401767197883, "YS": -30.976544743596467, "ZS": 3.0999232746251746, "DIST": 42.162177476157474, "LONG": -47.45052777777778, "LAT": 4.220666666666666, "ELEVATION": 35784156.0, "TYPE": "Satellite"}, {"NAME": "ORBCOMM FM32", "CATALOGNUMBER": "25982", "CLASS": "U", "LAUNCHYEAR": "99", "LAUNCHNUMBER": "065", "LAUNCHPIECE": "C  ", "X": 5659459.0633523725, "Y": 4382670.96816836, "Z": 242522.69821717782, "XS": 5.659459063352372, "YS": 4.38267096816836, "ZS": 0.2425226982171778, "DIST": 7.16212949925772, "LONG": 37.75411111111111, "LAT": 1.9521388888888889, "ELEVATION": 784017.125, "TYPE": "Satellite"}, {"NAME": "ORBCOMM FM35", "CATALOGNUMBER": "25985", "CLASS": "U", "LAUNCHYEAR": "99", "LAUNCHNUMBER": "065", "LAUNCHPIECE": "F  ", "X": -749273.2075457644, "Y": -5950782.227189023, "Z": 3903072.3189618797, "XS": -0.7492732075457644, "YS": -5.950782227189023, "ZS": 3.90307231896188, "DIST": 7.15592013524614, "LONG": -97.17644444444444, "LAT": 33.21105555555556, "ELEVATION": 784164.25, "TYPE": "Satellite"}, {"NAME": "XMM-NEWTON", "CATALOGNUMBER": "25989", "CLASS": "U", "LAUNCHYEAR": "99", "LAUNCHNUMBER": "066", "LAUNCHPIECE": "A  ", "X": -4300164.5908412, "Y": 38496714.480061494, "Z": -97477579.23171498, "XS": -4.3001645908412005, "YS": 38.49671448006149, "ZS": -97.47757923171498, "DIST": 104.89216793518462, "LONG": 96.37363888888888, "LAT": -68.33588888888889, "ELEVATION": 98532496.0, "TYPE": "Satellite"}, {"NAME": "DMSP 5D-3 F15 (USA 147)", "CATALOGNUMBER": "25991", "CLASS": "U", "LAUNCHYEAR": "99", "LAUNCHNUMBER": "067", "LAUNCHPIECE": "A  ", "X": -925982.8257551112, "Y": 1368576.8546664352, "Z": 7020903.167227663, "XS": -0.9259828257551111, "YS": 1.3685768546664352, "ZS": 7.020903167227663, "DIST": 7.212733745557888, "LONG": 124.08238888888889, "LAT": 76.83163888888889, "ELEVATION": 854863.5625, "TYPE": "Satellite"}, {"NAME": "TERRA", "CATALOGNUMBER": "25994", "CLASS": "U", "LAUNCHYEAR": "99", "LAUNCHNUMBER": "068", "LAUNCHPIECE": "A  ", "X": 1468052.0657866155, "Y": 472352.14949394605, "Z": -6912250.465871906, "XS": 1.4680520657866154, "YS": 0.47235214949394605, "ZS": -6.912250465871906, "DIST": 7.082195981751584, "LONG": 17.835805555555556, "LAT": -77.4961388888889, "ELEVATION": 724433.875, "TYPE": "Satellite"}, {"NAME": "GALAXY 11 (G-11)", "CATALOGNUMBER": "26038", "CLASS": "U", "LAUNCHYEAR": "99", "LAUNCHNUMBER": "071", "LAUNCHPIECE": "A  ", "X": 14270627.197122946, "Y": 39637528.66348211, "Z": 2609742.010509836, "XS": 14.270627197122947, "YS": 39.63752866348211, "ZS": 2.609742010509836, "DIST": 42.20894730396685, "LONG": 70.19969444444445, "LAT": 3.548388888888889, "ELEVATION": 35830892.0, "TYPE": "Satellite"}, {"NAME": "USA 148", "CATALOGNUMBER": "26052", "CLASS": "U", "LAUNCHYEAR": "00", "LAUNCHNUMBER": "001", "LAUNCHPIECE": "A  ", "X": -29073323.483400706, "Y": -29887070.219658744, "Z": -6473630.818142393, "XS": -29.073323483400706, "YS": -29.887070219658742, "ZS": -6.473630818142393, "DIST": 42.194821964962415, "LONG": -134.20927777777777, "LAT": -8.834111111111111, "ELEVATION": 35817188.0, "TYPE": "Satellite"}, {"NAME": "ASIASTAR", "CATALOGNUMBER": "26107", "CLASS": "U", "LAUNCHYEAR": "00", "LAUNCHNUMBER": "016", "LAUNCHPIECE": "A  ", "X": 20796063.70476156, "Y": 36366532.536056615, "Z": 4481800.549036151, "XS": 20.79606370476156, "YS": 36.36653253605662, "ZS": 4.4818005490361505, "DIST": 42.131787173936814, "LONG": 60.23708333333333, "LAT": 6.112583333333333, "ELEVATION": 35753892.0, "TYPE": "Satellite"}, {"NAME": "IMAGE", "CATALOGNUMBER": "26113", "CLASS": "U", "LAUNCHYEAR": "00", "LAUNCHNUMBER": "017", "LAUNCHPIECE": "A  ", "X": -3317764.659037057, "Y": -4820049.949625972, "Z": -42474111.240503915, "XS": -3.317764659037057, "YS": -4.820049949625972, "ZS": -42.474111240503916, "DIST": 42.87529089720962, "LONG": -124.54063888888889, "LAT": -82.1636388888889, "ELEVATION": 36518140.0, "TYPE": "Satellite"}, {"NAME": "USA 149 (DSP 20)", "CATALOGNUMBER": "26356", "CLASS": "U", "LAUNCHYEAR": "00", "LAUNCHNUMBER": "024", "LAUNCHPIECE": "A  ", "X": -19729017.489476897, "Y": -37059578.41632772, "Z": -4134623.6211575684, "XS": -19.729017489476895, "YS": -37.059578416327724, "ZS": -4.134623621157568, "DIST": 42.186983727029634, "LONG": -118.02902777777777, "LAT": -5.630083333333333, "ELEVATION": 35809052.0, "TYPE": "Satellite"}, {"NAME": "NAVSTAR 47 (USA 150)", "CATALOGNUMBER": "26360", "CLASS": "U", "LAUNCHYEAR": "00", "LAUNCHNUMBER": "025", "LAUNCHPIECE": "A  ", "X": -16629609.325658178, "Y": -5646987.84372226, "Z": -19845480.441048738, "XS": -16.629609325658176, "YS": -5.646987843722259, "ZS": -19.84548044104874, "DIST": 26.500480598796926, "LONG": -161.24383333333333, "LAT": -48.53869444444444, "ELEVATION": 20134336.0, "TYPE": "Satellite"}, {"NAME": "TDRS 8", "CATALOGNUMBER": "26388", "CLASS": "U", "LAUNCHYEAR": "00", "LAUNCHNUMBER": "034", "LAUNCHPIECE": "A  ", "X": -13179527.38690986, "Y": -39780680.03464847, "Z": -5014910.965278111, "XS": -13.179527386909859, "YS": -39.78068003464847, "ZS": -5.014910965278111, "DIST": 42.206063286583046, "LONG": -108.33027777777777, "LAT": -6.830833333333333, "ELEVATION": 35828228.0, "TYPE": "Satellite"}, {"NAME": "NAVSTAR 48 (USA 151)", "CATALOGNUMBER": "26407", "CLASS": "U", "LAUNCHYEAR": "00", "LAUNCHNUMBER": "040", "LAUNCHPIECE": "A  ", "X": -6115421.198095314, "Y": -14134875.082620628, "Z": 22111824.120110087, "XS": -6.115421198095314, "YS": -14.134875082620628, "ZS": 22.111824120110086, "DIST": 26.946722174507332, "LONG": -113.39561111111112, "LAT": 55.185111111111105, "ELEVATION": 20582984.0, "TYPE": "Satellite"}, {"NAME": "CLUSTER II-FM7 (SAMBA)", "CATALOGNUMBER": "26410", "CLASS": "U", "LAUNCHYEAR": "00", "LAUNCHNUMBER": "041", "LAUNCHPIECE": "A  ", "X": -32229180.555750635, "Y": -85238931.3210268, "Z": -11716518.508901382, "XS": -32.22918055575064, "YS": -85.2389313210268, "ZS": -11.716518508901382, "DIST": 91.87857366119331, "LONG": -110.71180555555556, "LAT": -7.329777777777777, "ELEVATION": 85500784.0, "TYPE": "Satellite"}, {"NAME": "CLUSTER II-FM6 (SALSA)", "CATALOGNUMBER": "26411", "CLASS": "U", "LAUNCHYEAR": "00", "LAUNCHNUMBER": "041", "LAUNCHPIECE": "B  ", "X": -45817076.78236712, "Y": -88179366.57798624, "Z": 370371.29112879356, "XS": -45.81707678236712, "YS": -88.17936657798624, "ZS": 0.3703712911287936, "DIST": 99.37274470331134, "LONG": -117.45591666666667, "LAT": 0.2136388888888889, "ELEVATION": 92994608.0, "TYPE": "Satellite"}, {"NAME": "INTELSAT 9 (IS-9)", "CATALOGNUMBER": "26451", "CLASS": "U", "LAUNCHYEAR": "00", "LAUNCHNUMBER": "043", "LAUNCHPIECE": "A  ", "X": -6255999.684923433, "Y": -41577434.21309914, "Z": -3008735.811350301, "XS": -6.255999684923433, "YS": -41.57743421309914, "ZS": -3.008735811350301, "DIST": 42.15297212516397, "LONG": -98.55688888888889, "LAT": -4.097194444444444, "ELEVATION": 35774944.0, "TYPE": "Satellite"}, {"NAME": "CLUSTER II-FM5 (RUMBA)", "CATALOGNUMBER": "26463", "CLASS": "U", "LAUNCHYEAR": "00", "LAUNCHNUMBER": "045", "LAUNCHPIECE": "A  ", "X": -24041135.629319996, "Y": -77923600.93695076, "Z": -8360951.00023691, "XS": -24.041135629319996, "YS": -77.92360093695076, "ZS": -8.36095100023691, "DIST": 81.97541879708133, "LONG": -107.1461388888889, "LAT": -5.856999999999999, "ELEVATION": 75597504.0, "TYPE": "Satellite"}, {"NAME": "CLUSTER II-FM8 (TANGO)", "CATALOGNUMBER": "26464", "CLASS": "U", "LAUNCHYEAR": "00", "LAUNCHNUMBER": "045", "LAUNCHPIECE": "B  ", "X": -5534358.303286802, "Y": -64632447.25427129, "Z": -24916610.016742196, "XS": -5.534358303286802, "YS": -64.6324472542713, "ZS": -24.916610016742197, "DIST": 69.48971013489508, "LONG": -94.89419444444445, "LAT": -21.02391666666667, "ELEVATION": 63114320.0, "TYPE": "Satellite"}, {"NAME": "NSS-11 (AAP-1)", "CATALOGNUMBER": "26554", "CLASS": "U", "LAUNCHYEAR": "00", "LAUNCHNUMBER": "059", "LAUNCHPIECE": "A  ", "X": -34504892.62448863, "Y": -24288651.40652696, "Z": 410544.10946508223, "XS": -34.504892624488626, "YS": -24.28865140652696, "ZS": 0.41054410946508224, "DIST": 42.19827897724136, "LONG": -144.85755555555556, "LAT": 0.558, "ELEVATION": 35820144.0, "TYPE": "Satellite"}, {"NAME": "USA 153", "CATALOGNUMBER": "26575", "CLASS": "U", "LAUNCHYEAR": "00", "LAUNCHNUMBER": "065", "LAUNCHPIECE": "A  ", "X": 11383177.292224161, "Y": 40295291.19849653, "Z": 4587781.266477347, "XS": 11.383177292224161, "YS": 40.29529119849653, "ZS": 4.587781266477347, "DIST": 42.12285549421929, "LONG": 74.22533333333334, "LAT": 6.259027777777778, "ELEVATION": 35744972.0, "TYPE": "Satellite"}, {"NAME": "AMC-6 (GE-6)", "CATALOGNUMBER": "26580", "CLASS": "U", "LAUNCHYEAR": "00", "LAUNCHNUMBER": "067", "LAUNCHPIECE": "A  ", "X": -4423099.965713973, "Y": -41958333.528916694, "Z": 378754.1759577851, "XS": -4.423099965713973, "YS": -41.9583335289167, "ZS": 0.3787541759577851, "DIST": 42.192523277902204, "LONG": -96.01769444444444, "LAT": 0.5148611111111111, "ELEVATION": 35814388.0, "TYPE": "Satellite"}, {"NAME": "NAVSTAR 49 (USA 154)", "CATALOGNUMBER": "26605", "CLASS": "U", "LAUNCHYEAR": "00", "LAUNCHNUMBER": "071", "LAUNCHPIECE": "A  ", "X": 16712862.496131266, "Y": 19088820.20049976, "Z": 8678067.828551091, "XS": 16.712862496131265, "YS": 19.08882020049976, "ZS": 8.678067828551091, "DIST": 26.814393349440746, "LONG": 48.79683333333333, "LAT": 18.91086111111111, "ELEVATION": 20438496.0, "TYPE": "Satellite"}, {"NAME": "INTELSAT 1R (IS-1R)", "CATALOGNUMBER": "26608", "CLASS": "U", "LAUNCHYEAR": "00", "LAUNCHNUMBER": "072", "LAUNCHPIECE": "A  ", "X": -33056409.868827347, "Y": 26127437.66506026, "Z": 465543.20541794127, "XS": -33.056409868827345, "YS": 26.12743766506026, "ZS": 0.46554320541794125, "DIST": 42.137702391488155, "LONG": 141.67752777777775, "LAT": 0.6336666666666666, "ELEVATION": 35759568.0, "TYPE": "Satellite"}, {"NAME": "ANIK F1", "CATALOGNUMBER": "26624", "CLASS": "U", "LAUNCHYEAR": "00", "LAUNCHNUMBER": "076", "LAUNCHPIECE": "A  ", "X": -8906807.427220942, "Y": -41244888.9952508, "Z": -19230.581690068306, "XS": -8.906807427220942, "YS": -41.2448889952508, "ZS": -0.019230581690068305, "DIST": 42.19564499556122, "LONG": -102.18586111111111, "LAT": -0.02613888888888888, "ELEVATION": 35817508.0, "TYPE": "Satellite"}, {"NAME": "NAVSTAR 50 (USA 156)", "CATALOGNUMBER": "26690", "CLASS": "U", "LAUNCHYEAR": "01", "LAUNCHNUMBER": "004", "LAUNCHPIECE": "A  ", "X": 22239896.489536528, "Y": 69534.673616041, "Z": 15965481.182290664, "XS": 22.239896489536527, "YS": 0.06953467361604099, "ZS": 15.965481182290665, "DIST": 27.37726100832973, "LONG": 0.17913888888888888, "LAT": 35.71591666666667, "ELEVATION": 21006396.0, "TYPE": "Satellite"}, {"NAME": "ODIN", "CATALOGNUMBER": "26702", "CLASS": "U", "LAUNCHYEAR": "01", "LAUNCHNUMBER": "007", "LAUNCHPIECE": "A  ", "X": -1203544.8566436293, "Y": 2763430.42635295, "Z": 6224894.423028435, "XS": -1.2035448566436293, "YS": 2.76343042635295, "ZS": 6.224894423028434, "DIST": 6.916240201229067, "LONG": 113.53436111111111, "LAT": 64.30194444444444, "ELEVATION": 555441.125, "TYPE": "Satellite"}, {"NAME": "USA 157 (MILSTAR-2 2)", "CATALOGNUMBER": "26715", "CLASS": "U", "LAUNCHYEAR": "01", "LAUNCHNUMBER": "009", "LAUNCHPIECE": "A  ", "X": -4458162.603604006, "Y": -41936189.51257915, "Z": -956099.9300058945, "XS": -4.458162603604006, "YS": -41.93618951257915, "ZS": -0.9560999300058945, "DIST": 42.18333002160076, "LONG": -96.06822222222222, "LAT": -1.3000555555555555, "ELEVATION": 35805204.0, "TYPE": "Satellite"}, {"NAME": "BSAT-2A", "CATALOGNUMBER": "26720", "CLASS": "U", "LAUNCHYEAR": "01", "LAUNCHNUMBER": "011", "LAUNCHPIECE": "B  ", "X": -42158128.288929656, "Y": 4108900.2599095437, "Z": -3093622.8975214786, "XS": -42.15812828892965, "YS": 4.108900259909544, "ZS": -3.093622897521479, "DIST": 42.47071161169547, "LONG": 174.43330555555553, "LAT": -4.181388888888889, "ELEVATION": 36092688.0, "TYPE": "Satellite"}, {"NAME": "INTELSAT 10 (IS-10)", "CATALOGNUMBER": "26766", "CLASS": "U", "LAUNCHYEAR": "01", "LAUNCHNUMBER": "019", "LAUNCHPIECE": "A  ", "X": -30938748.27585425, "Y": -28546372.693748932, "Z": -2951809.313834712, "XS": -30.93874827585425, "YS": -28.546372693748932, "ZS": -2.951809313834712, "DIST": 42.199700438182376, "LONG": -137.30308333333332, "LAT": -4.015083333333333, "ELEVATION": 35821668.0, "TYPE": "Satellite"}, {"NAME": "INTELSAT 901 (IS-901)", "CATALOGNUMBER": "26824", "CLASS": "U", "LAUNCHYEAR": "01", "LAUNCHNUMBER": "024", "LAUNCHPIECE": "A  ", "X": 19562818.16017291, "Y": -37328268.825571366, "Z": 391682.04997843044, "XS": 19.56281816017291, "YS": -37.328268825571364, "ZS": 0.3916820499784304, "DIST": 42.14566315423675, "LONG": -62.342083333333335, "LAT": 0.5330277777777779, "ELEVATION": 35767528.0, "TYPE": "Satellite"}, {"NAME": "ASTRA 2C", "CATALOGNUMBER": "26853", "CLASS": "U", "LAUNCHYEAR": "01", "LAUNCHNUMBER": "025", "LAUNCHPIECE": "A  ", "X": -15747147.22163172, "Y": -38939842.19865962, "Z": -3632399.0305726095, "XS": -15.747147221631721, "YS": -38.93984219865962, "ZS": -3.6323990305726097, "DIST": 42.16015036493064, "LONG": -112.01825, "LAT": -4.947555555555556, "ELEVATION": 35782172.0, "TYPE": "Satellite"}, {"NAME": "OMNI-M1", "CATALOGNUMBER": "26857", "CLASS": "U", "LAUNCHYEAR": "01", "LAUNCHNUMBER": "026", "LAUNCHPIECE": "A  ", "X": -4758848.68718933, "Y": -16203311.574597979, "Z": -1793677.2108740734, "XS": -4.758848687189331, "YS": -16.20331157459798, "ZS": -1.7936772108740735, "DIST": 16.982674251950822, "LONG": -106.36730555555556, "LAT": -6.077944444444444, "ELEVATION": 10604776.0, "TYPE": "Satellite"}, {"NAME": "USA 159 (DSP 21)", "CATALOGNUMBER": "26880", "CLASS": "U", "LAUNCHYEAR": "01", "LAUNCHNUMBER": "033", "LAUNCHPIECE": "A  ", "X": -4602092.494418229, "Y": -41880872.10272917, "Z": -980050.026802644, "XS": -4.602092494418229, "YS": -41.88087210272917, "ZS": -0.980050026802644, "DIST": 42.14436144334584, "LONG": -96.27080555555555, "LAT": -1.3338611111111112, "ELEVATION": 35766236.0, "TYPE": "Satellite"}, {"NAME": "INTELSAT 902 (IS-902)", "CATALOGNUMBER": "26900", "CLASS": "U", "LAUNCHYEAR": "01", "LAUNCHNUMBER": "039", "LAUNCHPIECE": "A  ", "X": -6744238.768795102, "Y": -41599805.56268368, "Z": -818044.694787642, "XS": -6.7442387687951015, "YS": -41.59980556268368, "ZS": -0.818044694787642, "DIST": 42.1508929507582, "LONG": -99.20877777777778, "LAT": -1.1131666666666666, "ELEVATION": 35772764.0, "TYPE": "Satellite"}, {"NAME": "PCSAT (NO-44)", "CATALOGNUMBER": "26931", "CLASS": "U", "LAUNCHYEAR": "01", "LAUNCHNUMBER": "043", "LAUNCHPIECE": "C  ", "X": -4711812.766063324, "Y": 5303385.142551991, "Z": -1068093.1268069574, "XS": -4.711812766063324, "YS": 5.303385142551991, "ZS": -1.0680931268069573, "DIST": 7.174112937514351, "LONG": 131.6196111111111, "LAT": -8.61261111111111, "ELEVATION": 796451.9375, "TYPE": "Satellite"}, {"NAME": "PROBA-1", "CATALOGNUMBER": "26958", "CLASS": "U", "LAUNCHYEAR": "01", "LAUNCHNUMBER": "049", "LAUNCHPIECE": "B  ", "X": -1808582.0786608222, "Y": -3202603.9373185267, "Z": -5896633.819770302, "XS": -1.8085820786608222, "YS": -3.2026039373185267, "ZS": -5.896633819770302, "DIST": 6.949671324533278, "LONG": -119.45438888888889, "LAT": -58.20438888888889, "ELEVATION": 586948.6875, "TYPE": "Satellite"}, {"NAME": "BIRD 2", "CATALOGNUMBER": "26959", "CLASS": "U", "LAUNCHYEAR": "01", "LAUNCHNUMBER": "049", "LAUNCHPIECE": "C  ", "X": -6747588.6157229375, "Y": 11544531.2803153, "Z": -4941500.758373758, "XS": -6.747588615722938, "YS": 11.5445312803153, "ZS": -4.941500758373758, "DIST": 14.255686035902329, "LONG": 120.30558333333333, "LAT": -20.337500000000002, "ELEVATION": 7880121.5, "TYPE": "Satellite"}, {"NAME": "TIMED", "CATALOGNUMBER": "26998", "CLASS": "U", "LAUNCHYEAR": "01", "LAUNCHNUMBER": "055", "LAUNCHPIECE": "B  ", "X": 762301.3965058951, "Y": -4450033.436000913, "Z": 5318717.581188064, "XS": 0.7623013965058951, "YS": -4.450033436000913, "ZS": 5.318717581188064, "DIST": 6.976579226890492, "LONG": -80.27944444444444, "LAT": 49.84652777777778, "ELEVATION": 610894.25, "TYPE": "Satellite"}, {"NAME": "MAROC-TUBSAT", "CATALOGNUMBER": "27004", "CLASS": "U", "LAUNCHYEAR": "01", "LAUNCHNUMBER": "056", "LAUNCHPIECE": "D  ", "X": -4877506.4304352375, "Y": -4547181.331716619, "Z": -3167862.1958633107, "XS": -4.877506430435237, "YS": -4.54718133171662, "ZS": -3.167862195863311, "DIST": 7.382565809691719, "LONG": -137.00733333333335, "LAT": -25.539472222222223, "ELEVATION": 1008379.5625, "TYPE": "Satellite"}, {"NAME": "COSMOS 2385", "CATALOGNUMBER": "27056", "CLASS": "U", "LAUNCHYEAR": "01", "LAUNCHNUMBER": "058", "LAUNCHPIECE": "B  ", "X": -4602190.1446155105, "Y": -1869070.1284265716, "Z": 6010294.404792264, "XS": -4.602190144615511, "YS": -1.8690701284265716, "ZS": 6.010294404792264, "DIST": 7.797256960268133, "LONG": -157.8966388888889, "LAT": 50.581944444444446, "ELEVATION": 1431845.625, "TYPE": "Satellite"}, {"NAME": "COSMOS 2386", "CATALOGNUMBER": "27057", "CLASS": "U", "LAUNCHYEAR": "01", "LAUNCHNUMBER": "058", "LAUNCHPIECE": "C  ", "X": 4919419.506917707, "Y": -48491.043623781945, "Z": 6040682.791043597, "XS": 4.9194195069177065, "YS": -0.04849104362378195, "ZS": 6.040682791043597, "DIST": 7.7905640520031945, "LONG": -0.56475, "LAT": 50.993805555555554, "ELEVATION": 1425303.5, "TYPE": "Satellite"}, {"NAME": "USA 164 (MILSTAR-2 3)", "CATALOGNUMBER": "27168", "CLASS": "U", "LAUNCHYEAR": "02", "LAUNCHNUMBER": "001", "LAUNCHPIECE": "A  ", "X": 12239649.025699666, "Y": 40670044.68106677, "Z": 3170417.50404868, "XS": 12.239649025699666, "YS": 40.67004468106676, "ZS": 3.17041750404868, "DIST": 42.59005857923015, "LONG": 73.25083333333333, "LAT": 4.273333333333333, "ELEVATION": 36212040.0, "TYPE": "Satellite"}, {"NAME": "INTELSAT 904 (IS-904)", "CATALOGNUMBER": "27380", "CLASS": "U", "LAUNCHYEAR": "02", "LAUNCHNUMBER": "007", "LAUNCHPIECE": "A  ", "X": 15288896.21197344, "Y": -39266518.69601212, "Z": -1020802.5792536751, "XS": 15.288896211973439, "YS": -39.26651869601212, "ZS": -1.020802579253675, "DIST": 42.150348465826184, "LONG": -68.72594444444445, "LAT": -1.3891388888888887, "ELEVATION": 35772224.0, "TYPE": "Satellite"}, {"NAME": "NSS-7", "CATALOGNUMBER": "27414", "CLASS": "U", "LAUNCHYEAR": "02", "LAUNCHNUMBER": "019", "LAUNCHPIECE": "A  ", "X": 29689521.618583955, "Y": -29919067.98485634, "Z": 590089.9172017367, "XS": 29.689521618583957, "YS": -29.91906798485634, "ZS": 0.5900899172017368, "DIST": 42.154080812338954, "LONG": -45.22063888888889, "LAT": 0.802888888888889, "ELEVATION": 35775948.0, "TYPE": "Satellite"}, {"NAME": "AQUA", "CATALOGNUMBER": "27424", "CLASS": "U", "LAUNCHYEAR": "02", "LAUNCHNUMBER": "022", "LAUNCHPIECE": "A  ", "X": -4680682.21257186, "Y": -3116740.9879302676, "Z": -4314085.277550245, "XS": -4.680682212571861, "YS": -3.1167409879302674, "ZS": -4.3140852775502445, "DIST": 7.087608351405072, "LONG": -146.34141666666667, "LAT": -37.66127777777778, "ELEVATION": 717415.9375, "TYPE": "Satellite"}, {"NAME": "DIRECTV 5 (TEMPO 1)", "CATALOGNUMBER": "27426", "CLASS": "U", "LAUNCHYEAR": "02", "LAUNCHNUMBER": "023", "LAUNCHPIECE": "A  ", "X": -8890211.661877802, "Y": -41232656.90497474, "Z": -241798.28385219953, "XS": -8.890211661877801, "YS": -41.232656904974746, "ZS": -0.24179828385219954, "DIST": 42.18087629775398, "LONG": -102.16733333333333, "LAT": -0.32877777777777784, "ELEVATION": 35802740.0, "TYPE": "Satellite"}, {"NAME": "INTELSAT 905 (IS-905)", "CATALOGNUMBER": "27438", "CLASS": "U", "LAUNCHYEAR": "02", "LAUNCHNUMBER": "027", "LAUNCHPIECE": "A  ", "X": 23556823.73746222, "Y": -34953443.36188531, "Z": -24926.050042405506, "XS": 23.556823737462217, "YS": -34.953443361885306, "ZS": -0.024926050042405508, "DIST": 42.15053699252665, "LONG": -56.02205555555555, "LAT": -0.03391666666666671, "ELEVATION": 35772400.0, "TYPE": "Satellite"}, {"NAME": "GALAXY 3C (G-3C)", "CATALOGNUMBER": "27445", "CLASS": "U", "LAUNCHYEAR": "02", "LAUNCHNUMBER": "030", "LAUNCHPIECE": "A  ", "X": -11961386.444257895, "Y": -40432425.975184, "Z": 384318.8987035743, "XS": -11.961386444257894, "YS": -40.432425975184, "ZS": 0.38431889870357433, "DIST": 42.16637922472727, "LONG": -106.48013888888889, "LAT": 0.52275, "ELEVATION": 35788244.0, "TYPE": "Satellite"}, {"NAME": "COSMOS 2390", "CATALOGNUMBER": "27464", "CLASS": "U", "LAUNCHYEAR": "02", "LAUNCHNUMBER": "036", "LAUNCHPIECE": "A  ", "X": -759491.607717869, "Y": -829898.8203069085, "Z": -7808754.533350399, "XS": -0.7594916077178689, "YS": -0.8298988203069084, "ZS": -7.808754533350399, "DIST": 7.889373036956807, "LONG": -132.46355555555556, "LAT": -81.84575, "ELEVATION": 1532187.5, "TYPE": "Satellite"}, {"NAME": "COSMOS 2391", "CATALOGNUMBER": "27465", "CLASS": "U", "LAUNCHYEAR": "02", "LAUNCHNUMBER": "036", "LAUNCHPIECE": "B  ", "X": -3669028.60833144, "Y": 6885799.124012512, "Z": -966409.6230525342, "XS": -3.66902860833144, "YS": 6.885799124012512, "ZS": -0.9664096230525342, "DIST": 7.8619303014294495, "LONG": 118.05047222222223, "LAT": -7.098972222222222, "ELEVATION": 1484117.625, "TYPE": "Satellite"}, {"NAME": "INTELSAT 906 (IS-906)", "CATALOGNUMBER": "27513", "CLASS": "U", "LAUNCHYEAR": "02", "LAUNCHNUMBER": "041", "LAUNCHPIECE": "A  ", "X": 5491297.33741926, "Y": 41754029.800184906, "Z": 1869574.3315579465, "XS": 5.49129733741926, "YS": 41.7540298001849, "ZS": 1.8695743315579465, "DIST": 42.15505496596935, "LONG": 82.50772222222223, "LAT": 2.5444722222222222, "ELEVATION": 35776960.0, "TYPE": "Satellite"}, {"NAME": "INTEGRAL", "CATALOGNUMBER": "27540", "CLASS": "U", "LAUNCHYEAR": "02", "LAUNCHNUMBER": "048", "LAUNCHPIECE": "A  ", "X": 10687380.02499492, "Y": -14002697.098024102, "Z": 14779895.210693423, "XS": 10.68738002499492, "YS": -14.002697098024102, "ZS": 14.779895210693423, "DIST": 22.994367141905677, "LONG": -52.647777777777776, "LAT": 40.05052777777777, "ELEVATION": 16625066.0, "TYPE": "Satellite"}, {"NAME": "TDRS 10", "CATALOGNUMBER": "27566", "CLASS": "U", "LAUNCHYEAR": "02", "LAUNCHNUMBER": "055", "LAUNCHPIECE": "A  ", "X": -21885918.309937667, "Y": -35759270.346216105, "Z": -4680691.425140491, "XS": -21.88591830993767, "YS": -35.759270346216105, "ZS": -4.680691425140491, "DIST": 42.18563390753325, "LONG": -121.46808333333334, "LAT": -6.3767499999999995, "ELEVATION": 35807760.0, "TYPE": "Satellite"}, {"NAME": "LATINSAT B", "CATALOGNUMBER": "27606", "CLASS": "U", "LAUNCHYEAR": "02", "LAUNCHNUMBER": "058", "LAUNCHPIECE": "B  ", "X": -1443632.51533675, "Y": -3421911.0677251476, "Z": -5926745.89711625, "XS": -1.44363251533675, "YS": -3.4219110677251474, "ZS": -5.92674589711625, "DIST": 6.994273881093138, "LONG": -112.87386111111111, "LAT": -58.08422222222222, "ELEVATION": 631511.0625, "TYPE": "Satellite"}, {"NAME": "SAUDISAT 1C (SO-50)", "CATALOGNUMBER": "27607", "CLASS": "U", "LAUNCHYEAR": "02", "LAUNCHNUMBER": "058", "LAUNCHPIECE": "C  ", "X": 920577.8423231647, "Y": -6921832.859562833, "Z": -652677.7722849937, "XS": 0.9205778423231646, "YS": -6.921832859562833, "ZS": -0.6526777722849937, "DIST": 7.013217661953395, "LONG": -82.42433333333334, "LAT": -5.372416666666666, "ELEVATION": 635266.6875, "TYPE": "Satellite"}, {"NAME": "LATINSAT A", "CATALOGNUMBER": "27612", "CLASS": "U", "LAUNCHYEAR": "02", "LAUNCHNUMBER": "058", "LAUNCHPIECE": "H  ", "X": 5009536.731027612, "Y": -4752682.115495309, "Z": -1198323.419129325, "XS": 5.009536731027612, "YS": -4.752682115495309, "ZS": -1.198323419129325, "DIST": 7.008525134955113, "LONG": -43.49283333333333, "LAT": -9.904, "ELEVATION": 631016.0, "TYPE": "Satellite"}, {"NAME": "NIMIQ 2", "CATALOGNUMBER": "27632", "CLASS": "U", "LAUNCHYEAR": "02", "LAUNCHNUMBER": "062", "LAUNCHPIECE": "A  ", "X": -8773560.885952938, "Y": -41160265.32812281, "Z": -3046210.7319533066, "XS": -8.773560885952937, "YS": -41.16026532812281, "ZS": -3.0462107319533067, "DIST": 42.19504961869887, "LONG": -102.0328611111111, "LAT": -4.144166666666667, "ELEVATION": 35817024.0, "TYPE": "Satellite"}, {"NAME": "CORIOLIS", "CATALOGNUMBER": "27640", "CLASS": "U", "LAUNCHYEAR": "03", "LAUNCHNUMBER": "001", "LAUNCHPIECE": "A  ", "X": 1120436.904336278, "Y": -4578943.854756887, "Z": -5460632.550638163, "XS": 1.120436904336278, "YS": -4.578943854756887, "ZS": -5.460632550638164, "DIST": 7.213918043248314, "LONG": -76.25027777777778, "LAT": -49.364666666666665, "ELEVATION": 848056.375, "TYPE": "Satellite"}, {"NAME": "SORCE", "CATALOGNUMBER": "27651", "CLASS": "U", "LAUNCHYEAR": "03", "LAUNCHNUMBER": "004", "LAUNCHPIECE": "A  ", "X": 1358337.3107491692, "Y": 5865866.25158745, "Z": 3508964.1763446108, "XS": 1.3583373107491692, "YS": 5.86586625158745, "ZS": 3.5089641763446107, "DIST": 6.968952340356166, "LONG": 76.96202777777778, "LAT": 30.386055555555554, "ELEVATION": 596255.0, "TYPE": "Satellite"}, {"NAME": "NAVSTAR 51 (USA 166)", "CATALOGNUMBER": "27663", "CLASS": "U", "LAUNCHYEAR": "03", "LAUNCHNUMBER": "005", "LAUNCHPIECE": "A  ", "X": 20367396.376368556, "Y": 4242708.901176026, "Z": -17067438.92326551, "XS": 20.367396376368557, "YS": 4.242708901176026, "ZS": -17.06743892326551, "DIST": 26.90964298112533, "LONG": 11.766944444444444, "LAT": -39.40902777777777, "ELEVATION": 20540108.0, "TYPE": "Satellite"}, {"NAME": "USA 167", "CATALOGNUMBER": "27691", "CLASS": "U", "LAUNCHYEAR": "03", "LAUNCHNUMBER": "008", "LAUNCHPIECE": "A  ", "X": -6291712.060406021, "Y": -41601598.05055597, "Z": -3042803.6897693374, "XS": -6.291712060406021, "YS": -41.601598050555964, "ZS": -3.0428036897693373, "DIST": 42.18456181241609, "LONG": -98.60008333333333, "LAT": -4.140555555555556, "ELEVATION": 35806536.0, "TYPE": "Satellite"}, {"NAME": "NAVSTAR 52 (USA 168)", "CATALOGNUMBER": "27704", "CLASS": "U", "LAUNCHYEAR": "03", "LAUNCHNUMBER": "010", "LAUNCHPIECE": "A  ", "X": 15049887.858857337, "Y": -4640630.724486958, "Z": 21871997.419434752, "XS": 15.049887858857337, "YS": -4.640630724486958, "ZS": 21.871997419434752, "DIST": 26.95215852582116, "LONG": -17.137138888888888, "LAT": 54.28702777777777, "ELEVATION": 20588104.0, "TYPE": "Satellite"}, {"NAME": "USA 169 (MILSTAR-2 4)", "CATALOGNUMBER": "27711", "CLASS": "U", "LAUNCHYEAR": "03", "LAUNCHNUMBER": "012", "LAUNCHPIECE": "A  ", "X": -17656171.5974498, "Y": 38679951.64329715, "Z": 652278.2395449089, "XS": -17.656171597449802, "YS": 38.67995164329715, "ZS": 0.6522782395449088, "DIST": 42.52416397188995, "LONG": 114.53519444444444, "LAT": 0.8797777777777778, "ELEVATION": 36146032.0, "TYPE": "Satellite"}, {"NAME": "GALAXY 12 (G-12)", "CATALOGNUMBER": "27715", "CLASS": "U", "LAUNCHYEAR": "03", "LAUNCHNUMBER": "013", "LAUNCHPIECE": "B  ", "X": 12511444.849337641, "Y": 40475389.167763904, "Z": 2783559.190732669, "XS": 12.511444849337641, "YS": 40.4753891677639, "ZS": 2.783559190732669, "DIST": 42.456349139654826, "LONG": 72.82297222222222, "LAT": 3.7629444444444444, "ELEVATION": 36078304.0, "TYPE": "Satellite"}, {"NAME": "ASIASAT 4", "CATALOGNUMBER": "27718", "CLASS": "U", "LAUNCHYEAR": "03", "LAUNCHNUMBER": "014", "LAUNCHPIECE": "A  ", "X": -7450184.19745448, "Y": 41446272.61372959, "Z": 974732.7767362911, "XS": -7.4501841974544805, "YS": 41.44627261372959, "ZS": 0.9747327767362911, "DIST": 42.12183355616937, "LONG": 100.19038888888889, "LAT": 1.3273333333333333, "ELEVATION": 35743708.0, "TYPE": "Satellite"}, {"NAME": "HELLAS-SAT 2", "CATALOGNUMBER": "27811", "CLASS": "U", "LAUNCHYEAR": "03", "LAUNCHNUMBER": "020", "LAUNCHPIECE": "A  ", "X": 41832574.7804792, "Y": -5267664.5723004695, "Z": 970348.1380086277, "XS": 41.8325747804792, "YS": -5.267664572300469, "ZS": 0.9703481380086277, "DIST": 42.17409368699688, "LONG": -7.1770555555555555, "LAT": 1.3197222222222222, "ELEVATION": 35795968.0, "TYPE": "Satellite"}, {"NAME": "THURAYA-2", "CATALOGNUMBER": "27825", "CLASS": "U", "LAUNCHYEAR": "03", "LAUNCHNUMBER": "026", "LAUNCHPIECE": "A  ", "X": 158013.37752442155, "Y": 42147220.99807984, "Z": 1405855.3513138578, "XS": 0.15801337752442154, "YS": 42.14722099807984, "ZS": 1.4058553513138579, "DIST": 42.17095724971484, "LONG": 89.78519444444444, "LAT": 1.912361111111111, "ELEVATION": 35792844.0, "TYPE": "Satellite"}, {"NAME": "OPTUS C1", "CATALOGNUMBER": "27831", "CLASS": "U", "LAUNCHYEAR": "03", "LAUNCHNUMBER": "028", "LAUNCHPIECE": "B  ", "X": -29255932.443160977, "Y": 30297815.24137345, "Z": 976848.4447697643, "XS": -29.255932443160976, "YS": 30.29781524137345, "ZS": 0.9768484447697643, "DIST": 42.12862951014725, "LONG": 133.99772222222222, "LAT": 1.33, "ELEVATION": 35750504.0, "TYPE": "Satellite"}, {"NAME": "MOST", "CATALOGNUMBER": "27843", "CLASS": "U", "LAUNCHYEAR": "03", "LAUNCHNUMBER": "031", "LAUNCHPIECE": "D  ", "X": -1093237.8463729932, "Y": 982311.5661144279, "Z": 7049052.156607301, "XS": -1.0932378463729933, "YS": 0.9823115661144278, "ZS": 7.049052156607301, "DIST": 7.20064172891795, "LONG": 138.05922222222225, "LAT": 78.29027777777777, "ELEVATION": 843002.125, "TYPE": "Satellite"}, {"NAME": "CUTE-1 (CO-55)", "CATALOGNUMBER": "27844", "CLASS": "U", "LAUNCHYEAR": "03", "LAUNCHNUMBER": "031", "LAUNCHPIECE": "E  ", "X": -742993.3045780528, "Y": -4812964.0730448775, "Z": 5301032.224339515, "XS": -0.7429933045780528, "YS": -4.812964073044878, "ZS": 5.301032224339515, "DIST": 7.198444614120088, "LONG": -98.77566666666667, "LAT": 47.596333333333334, "ELEVATION": 831927.25, "TYPE": "Satellite"}, {"NAME": "CUBESAT XI-IV (CO-57)", "CATALOGNUMBER": "27848", "CLASS": "U", "LAUNCHYEAR": "03", "LAUNCHNUMBER": "031", "LAUNCHPIECE": "J  ", "X": 1035938.8036953538, "Y": 2708422.1003723815, "Z": -6587602.630988317, "XS": 1.0359388036953538, "YS": 2.7084221003723816, "ZS": -6.587602630988316, "DIST": 7.19758486595271, "LONG": 69.06875, "LAT": -66.36669444444445, "ELEVATION": 837373.875, "TYPE": "Satellite"}, {"NAME": "GALAXY 23 (G-23)", "CATALOGNUMBER": "27854", "CLASS": "U", "LAUNCHYEAR": "03", "LAUNCHNUMBER": "034", "LAUNCHPIECE": "A  ", "X": -7095458.649906937, "Y": -41582849.69108223, "Z": 35079.37763419105, "XS": -7.095458649906937, "YS": -41.58284969108223, "ZS": 0.03507937763419105, "DIST": 42.18388498522169, "LONG": -99.68336111111111, "LAT": 0.04769444444444444, "ELEVATION": 35805748.0, "TYPE": "Satellite"}, {"NAME": "SCISAT 1", "CATALOGNUMBER": "27858", "CLASS": "U", "LAUNCHYEAR": "03", "LAUNCHNUMBER": "036", "LAUNCHPIECE": "A  ", "X": -4780091.434710776, "Y": -759667.4591370847, "Z": 5063322.636925546, "XS": -4.780091434710776, "YS": -0.7596674591370847, "ZS": 5.063322636925546, "DIST": 7.0045417336375255, "LONG": -170.96988888888887, "LAT": 46.466055555555556, "ELEVATION": 637602.5, "TYPE": "Satellite"}, {"NAME": "COSMOS 2400", "CATALOGNUMBER": "27868", "CLASS": "U", "LAUNCHYEAR": "03", "LAUNCHNUMBER": "037", "LAUNCHPIECE": "A  ", "X": -986668.0984228071, "Y": 5700515.85347201, "Z": 5341194.1503807185, "XS": -0.986668098422807, "YS": 5.700515853472011, "ZS": 5.341194150380718, "DIST": 7.87386499021873, "LONG": 99.81969444444444, "LAT": 42.86958333333333, "ELEVATION": 1505588.125, "TYPE": "Satellite"}, {"NAME": "COSMOS 2401", "CATALOGNUMBER": "27869", "CLASS": "U", "LAUNCHYEAR": "03", "LAUNCHNUMBER": "037", "LAUNCHPIECE": "B  ", "X": 1090670.3633348367, "Y": -6504531.512599666, "Z": -4267759.81752495, "XS": 1.0906703633348367, "YS": -6.504531512599666, "ZS": -4.26775981752495, "DIST": 7.855715492553153, "LONG": -80.48127777777778, "LAT": -33.04888888888889, "ELEVATION": 1483906.75, "TYPE": "Satellite"}, {"NAME": "USA 170", "CATALOGNUMBER": "27875", "CLASS": "U", "LAUNCHYEAR": "03", "LAUNCHNUMBER": "040", "LAUNCHPIECE": "A  ", "X": -5059434.269826026, "Y": -41729862.24003306, "Z": -3159302.7428336316, "XS": -5.059434269826026, "YS": -41.72986224003306, "ZS": -3.1593027428336318, "DIST": 42.15400896147012, "LONG": -96.91294444444445, "LAT": -4.302499999999999, "ELEVATION": 35775992.0, "TYPE": "Satellite"}, {"NAME": "MOZHAYETS 4 (RS-22)", "CATALOGNUMBER": "27939", "CLASS": "U", "LAUNCHYEAR": "03", "LAUNCHNUMBER": "042", "LAUNCHPIECE": "A  ", "X": 1029021.4477696107, "Y": -381287.0317419484, "Z": 6964864.263618915, "XS": 1.0290214477696107, "YS": -0.3812870317419484, "ZS": 6.9648642636189155, "DIST": 7.0507871299011935, "LONG": -20.33136111111111, "LAT": 81.09925, "ELEVATION": 693519.0, "TYPE": "Satellite"}, {"NAME": "LARETS", "CATALOGNUMBER": "27944", "CLASS": "U", "LAUNCHYEAR": "03", "LAUNCHNUMBER": "042", "LAUNCHPIECE": "F  ", "X": 2497549.4934802684, "Y": 2763677.9620540985, "Z": -6001332.185307026, "XS": 2.4975494934802684, "YS": 2.7636779620540985, "ZS": -6.001332185307026, "DIST": 7.063402674966865, "LONG": 47.89572222222222, "LAT": -58.32741666666667, "ELEVATION": 700721.6875, "TYPE": "Satellite"}, {"NAME": "GALAXY 13 (HORIZONS-1)", "CATALOGNUMBER": "27954", "CLASS": "U", "LAUNCHYEAR": "03", "LAUNCHNUMBER": "044", "LAUNCHPIECE": "A  ", "X": -5356670.520430328, "Y": -41832250.97258405, "Z": 305063.83754859597, "XS": -5.356670520430328, "YS": -41.83225097258405, "ZS": 0.30506383754859595, "DIST": 42.17492388188373, "LONG": -97.29708333333333, "LAT": 0.4148611111111111, "ELEVATION": 35796788.0, "TYPE": "Satellite"}, {"NAME": "IRS-P6 (RESOURCESAT-1)", "CATALOGNUMBER": "28051", "CLASS": "U", "LAUNCHYEAR": "03", "LAUNCHNUMBER": "046", "LAUNCHPIECE": "A  ", "X": 753091.03516169, "Y": 929715.3039484769, "Z": -7099049.619879956, "XS": 0.75309103516169, "YS": 0.9297153039484769, "ZS": -7.099049619879956, "DIST": 7.199168157443932, "LONG": 50.99172222222222, "LAT": -80.48894444444444, "ELEVATION": 841827.625, "TYPE": "Satellite"}, {"NAME": "DMSP 5D-3 F16 (USA 172)", "CATALOGNUMBER": "28054", "CLASS": "U", "LAUNCHYEAR": "03", "LAUNCHNUMBER": "048", "LAUNCHPIECE": "A  ", "X": 1753848.1624394592, "Y": 3432365.4617146295, "Z": -6124872.722375906, "XS": 1.7538481624394593, "YS": 3.4323654617146295, "ZS": -6.124872722375906, "DIST": 7.236793620448782, "LONG": 62.93416666666666, "LAT": -57.96941666666667, "ELEVATION": 873993.0625, "TYPE": "Satellite"}, {"NAME": "CHUANGXIN 1 (CX-1)", "CATALOGNUMBER": "28058", "CLASS": "U", "LAUNCHYEAR": "03", "LAUNCHNUMBER": "049", "LAUNCHPIECE": "B  ", "X": 1426436.7882893784, "Y": -144795.74641824144, "Z": 6958188.55590372, "XS": 1.4264367882893785, "YS": -0.14479574641824144, "ZS": 6.958188555903719, "DIST": 7.104370183110929, "LONG": -5.796166666666666, "LAT": 78.42480555555557, "ELEVATION": 746750.5, "TYPE": "Satellite"}, {"NAME": "YAMAL 202", "CATALOGNUMBER": "28089", "CLASS": "U", "LAUNCHYEAR": "03", "LAUNCHNUMBER": "053", "LAUNCHPIECE": "A  ", "X": -40990806.84990304, "Y": 9878000.872705314, "Z": 412172.00506796635, "XS": -40.99080684990304, "YS": 9.878000872705314, "ZS": 0.41217200506796636, "DIST": 42.16623095806627, "LONG": 166.4511388888889, "LAT": 0.5606388888888889, "ELEVATION": 35788096.0, "TYPE": "Satellite"}, {"NAME": "UFO 11 (USA 174)", "CATALOGNUMBER": "28117", "CLASS": "U", "LAUNCHYEAR": "03", "LAUNCHNUMBER": "057", "LAUNCHPIECE": "A  ", "X": 9963891.132061822, "Y": 40853467.553095296, "Z": 2883057.5576040274, "XS": 9.963891132061823, "YS": 40.8534675530953, "ZS": 2.8830575576040274, "DIST": 42.149697015326794, "LONG": 76.29352777777778, "LAT": 3.926083333333333, "ELEVATION": 35771660.0, "TYPE": "Satellite"}, {"NAME": "NAVSTAR 53 (USA 175)", "CATALOGNUMBER": "28129", "CLASS": "U", "LAUNCHYEAR": "03", "LAUNCHNUMBER": "058", "LAUNCHPIECE": "A  ", "X": 22929005.760915175, "Y": -6444573.069546682, "Z": 11596127.600249583, "XS": 22.929005760915175, "YS": -6.444573069546681, "ZS": 11.596127600249583, "DIST": 26.490413408515877, "LONG": -15.698888888888888, "LAT": 25.996694444444444, "ELEVATION": 20116374.0, "TYPE": "Satellite"}, {"NAME": "USA 176 (DSP 22)", "CATALOGNUMBER": "28158", "CLASS": "U", "LAUNCHYEAR": "04", "LAUNCHNUMBER": "004", "LAUNCHPIECE": "A  ", "X": 16242004.736642282, "Y": 38618966.269031025, "Z": 4696867.270344554, "XS": 16.242004736642283, "YS": 38.61896626903103, "ZS": 4.696867270344555, "DIST": 42.15789173700341, "LONG": 67.18980555555557, "LAT": 6.403111111111111, "ELEVATION": 35780020.0, "TYPE": "Satellite"}, {"NAME": "ABS-4 (MOBISAT-1)", "CATALOGNUMBER": "28184", "CLASS": "U", "LAUNCHYEAR": "04", "LAUNCHNUMBER": "007", "LAUNCHPIECE": "A  ", "X": 3672459.7093683793, "Y": 41939405.265061766, "Z": 2010589.7029561661, "XS": 3.6724597093683795, "YS": 41.939405265061765, "ZS": 2.010589702956166, "DIST": 42.14787236928642, "LONG": 84.99561111111112, "LAT": 2.737, "ELEVATION": 35769784.0, "TYPE": "Satellite"}, {"NAME": "EUTELSAT 7A", "CATALOGNUMBER": "28187", "CLASS": "U", "LAUNCHYEAR": "04", "LAUNCHNUMBER": "008", "LAUNCHPIECE": "A  ", "X": -5471640.344084627, "Y": -41829489.50943622, "Z": -1052056.5333416958, "XS": -5.471640344084627, "YS": -41.82948950943622, "ZS": -1.0520565333416958, "DIST": 42.19895571722594, "LONG": -97.45244444444445, "LAT": -1.430027777777778, "ELEVATION": 35820832.0, "TYPE": "Satellite"}, {"NAME": "NAVSTAR 54 (USA 177)", "CATALOGNUMBER": "28190", "CLASS": "U", "LAUNCHYEAR": "04", "LAUNCHNUMBER": "009", "LAUNCHPIECE": "A  ", "X": -15173434.101550749, "Y": -19626091.801505297, "Z": 9692660.880784132, "XS": -15.173434101550749, "YS": -19.626091801505297, "ZS": 9.692660880784132, "DIST": 26.633893008441323, "LONG": -127.70852777777777, "LAT": 21.372444444444444, "ELEVATION": 20258588.0, "TYPE": "Satellite"}, {"NAME": "SHIYAN 1 (SY-1)", "CATALOGNUMBER": "28220", "CLASS": "U", "LAUNCHYEAR": "04", "LAUNCHNUMBER": "012", "LAUNCHPIECE": "A  ", "X": 1187951.807512234, "Y": 4390994.776222645, "Z": -5258347.257915615, "XS": 1.187951807512234, "YS": 4.390994776222645, "ZS": -5.258347257915615, "DIST": 6.952861317947799, "LONG": 74.86144444444444, "LAT": -49.312083333333334, "ELEVATION": 586979.0625, "TYPE": "Satellite"}, {"NAME": "AMC-11 (GE-11)", "CATALOGNUMBER": "28252", "CLASS": "U", "LAUNCHYEAR": "04", "LAUNCHNUMBER": "017", "LAUNCHPIECE": "A  ", "X": -9229040.347851599, "Y": -41152816.561365604, "Z": 329237.97765821527, "XS": -9.2290403478516, "YS": -41.152816561365604, "ZS": 0.3292379776582153, "DIST": 42.17627169774033, "LONG": -102.64016666666667, "LAT": 0.44772222222222224, "ELEVATION": 35798136.0, "TYPE": "Satellite"}, {"NAME": "INTELSAT 10-02", "CATALOGNUMBER": "28358", "CLASS": "U", "LAUNCHYEAR": "04", "LAUNCHNUMBER": "022", "LAUNCHPIECE": "A  ", "X": 36587686.44208296, "Y": 20997967.830964934, "Z": 229730.2452003296, "XS": 36.587686442082955, "YS": 20.997967830964935, "ZS": 0.2297302452003296, "DIST": 42.18561636624477, "LONG": 29.851861111111113, "LAT": 0.3123333333333333, "ELEVATION": 35807480.0, "TYPE": "Satellite"}, {"NAME": "NAVSTAR 55 (USA 178)", "CATALOGNUMBER": "28361", "CLASS": "U", "LAUNCHYEAR": "04", "LAUNCHNUMBER": "023", "LAUNCHPIECE": "A  ", "X": -17721098.495436907, "Y": -17426689.312015336, "Z": -8820694.692391295, "XS": -17.721098495436905, "YS": -17.426689312015338, "ZS": -8.820694692391294, "DIST": 26.372930954273276, "LONG": -135.47991666666664, "LAT": -19.569, "ELEVATION": 19997186.0, "TYPE": "Satellite"}, {"NAME": "APRIZESAT 2", "CATALOGNUMBER": "28366", "CLASS": "U", "LAUNCHYEAR": "04", "LAUNCHNUMBER": "025", "LAUNCHPIECE": "A  ", "X": 2155697.686997205, "Y": -4257647.205100215, "Z": -5422728.027916738, "XS": 2.155697686997205, "YS": -4.257647205100215, "ZS": -5.422728027916738, "DIST": 7.223612081609624, "LONG": -63.14636111111111, "LAT": -48.81875, "ELEVATION": 857548.5625, "TYPE": "Satellite"}, {"NAME": "SAUDICOMSAT 1", "CATALOGNUMBER": "28369", "CLASS": "U", "LAUNCHYEAR": "04", "LAUNCHNUMBER": "025", "LAUNCHPIECE": "D  ", "X": 587650.5526617436, "Y": -952813.4985115781, "Z": -6989639.915920277, "XS": 0.5876505526617436, "YS": -0.952813498511578, "ZS": -6.989639915920277, "DIST": 7.07871830836738, "LONG": -58.33566666666667, "LAT": -80.9546388888889, "ELEVATION": 721433.4375, "TYPE": "Satellite"}, {"NAME": "SAUDICOMSAT 2", "CATALOGNUMBER": "28370", "CLASS": "U", "LAUNCHYEAR": "04", "LAUNCHNUMBER": "025", "LAUNCHPIECE": "E  ", "X": -2228108.0415262445, "Y": -3915052.121484004, "Z": -5558999.042591744, "XS": -2.2281080415262444, "YS": -3.915052121484004, "ZS": -5.558999042591744, "DIST": 7.155038009276138, "LONG": -119.64477777777779, "LAT": -51.14816666666667, "ELEVATION": 789831.375, "TYPE": "Satellite"}, {"NAME": "SAUDISAT 2", "CATALOGNUMBER": "28371", "CLASS": "U", "LAUNCHYEAR": "04", "LAUNCHNUMBER": "025", "LAUNCHPIECE": "F  ", "X": 5194841.710566988, "Y": 4403740.901186952, "Z": -1919130.5119614243, "XS": 5.194841710566989, "YS": 4.403740901186953, "ZS": -1.9191305119614244, "DIST": 7.075477103671155, "LONG": 40.28841666666666, "LAT": -15.82863888888889, "ELEVATION": 698919.75, "TYPE": "Satellite"}, {"NAME": "APRIZESAT 1", "CATALOGNUMBER": "28372", "CLASS": "U", "LAUNCHYEAR": "04", "LAUNCHNUMBER": "025", "LAUNCHPIECE": "G  ", "X": -4610259.560927771, "Y": -5114424.807277002, "Z": 1622877.44020542, "XS": -4.610259560927771, "YS": -5.114424807277002, "ZS": 1.6228774402054198, "DIST": 7.074289046564609, "LONG": -132.03222222222223, "LAT": 13.339694444444445, "ELEVATION": 697282.125, "TYPE": "Satellite"}, {"NAME": "AURA", "CATALOGNUMBER": "28376", "CLASS": "U", "LAUNCHYEAR": "04", "LAUNCHNUMBER": "026", "LAUNCHPIECE": "A  ", "X": -4420529.679094214, "Y": -1516354.6014885097, "Z": 5318017.012315029, "XS": -4.420529679094214, "YS": -1.5163546014885096, "ZS": 5.318017012315029, "DIST": 7.07966940361485, "LONG": -161.06672222222224, "LAT": 48.86313888888889, "ELEVATION": 713621.6875, "TYPE": "Satellite"}, {"NAME": "ANIK F2", "CATALOGNUMBER": "28378", "CLASS": "U", "LAUNCHYEAR": "04", "LAUNCHNUMBER": "027", "LAUNCHPIECE": "A  ", "X": -9192104.056983382, "Y": -41161727.78612668, "Z": 49166.88557514767, "XS": -9.192104056983382, "YS": -41.16172778612668, "ZS": 0.04916688557514767, "DIST": 42.175644970957364, "LONG": -102.58855555555554, "LAT": 0.06686111111111111, "ELEVATION": 35797508.0, "TYPE": "Satellite"}, {"NAME": "COSMOS 2407", "CATALOGNUMBER": "28380", "CLASS": "U", "LAUNCHYEAR": "04", "LAUNCHNUMBER": "028", "LAUNCHPIECE": "A  ", "X": -7206297.464320325, "Y": 530216.0566432365, "Z": 1510699.1436518417, "XS": -7.2062974643203255, "YS": 0.5302160566432366, "ZS": 1.5106991436518418, "DIST": 7.38200949021486, "LONG": 175.79194444444445, "LAT": 11.875527777777778, "ELEVATION": 1004771.625, "TYPE": "Satellite"}, {"NAME": "SHIJIAN-6 01A (SJ-6 01A)", "CATALOGNUMBER": "28413", "CLASS": "U", "LAUNCHYEAR": "04", "LAUNCHNUMBER": "035", "LAUNCHPIECE": "A  ", "X": 87399.77555460754, "Y": -3620876.2647075593, "Z": 5931285.787736266, "XS": 0.08739977555460754, "YS": -3.6208762647075594, "ZS": 5.931285787736266, "DIST": 6.9497147237057, "LONG": -88.61727777777779, "LAT": 58.74625, "ELEVATION": 587173.0, "TYPE": "Satellite"}, {"NAME": "SHIJIAN-6 01B (SJ-6 01B)", "CATALOGNUMBER": "28414", "CLASS": "U", "LAUNCHYEAR": "04", "LAUNCHNUMBER": "035", "LAUNCHPIECE": "B  ", "X": 1463242.1980131809, "Y": -6658747.416796197, "Z": 1428418.0648996916, "XS": 1.463242198013181, "YS": -6.6587474167961975, "ZS": 1.4284180648996916, "DIST": 6.965656685400757, "LONG": -77.60638888888889, "LAT": 11.904250000000001, "ELEVATION": 588422.8125, "TYPE": "Satellite"}, {"NAME": "COSMOS 2408", "CATALOGNUMBER": "28419", "CLASS": "U", "LAUNCHYEAR": "04", "LAUNCHNUMBER": "037", "LAUNCHPIECE": "A  ", "X": 1554598.0696776004, "Y": -7529091.401108981, "Z": -1709163.5128348845, "XS": 1.5545980696776005, "YS": -7.529091401108981, "ZS": -1.7091635128348845, "DIST": 7.8756099699073845, "LONG": -78.33358333333332, "LAT": -12.600194444444444, "ELEVATION": 1498483.75, "TYPE": "Satellite"}, {"NAME": "COSMOS 2409", "CATALOGNUMBER": "28420", "CLASS": "U", "LAUNCHYEAR": "04", "LAUNCHNUMBER": "037", "LAUNCHPIECE": "B  ", "X": 1042210.5929332045, "Y": -5943013.709357245, "Z": -5067102.1309016375, "XS": 1.0422105929332044, "YS": -5.943013709357245, "ZS": -5.067102130901637, "DIST": 7.8791585131039374, "LONG": -80.05333333333333, "LAT": -40.17677777777777, "ELEVATION": 1509885.25, "TYPE": "Satellite"}, {"NAME": "AMC-15", "CATALOGNUMBER": "28446", "CLASS": "U", "LAUNCHYEAR": "04", "LAUNCHNUMBER": "041", "LAUNCHPIECE": "A  ", "X": -10600476.266254647, "Y": -40819960.40997875, "Z": 314808.16563420964, "XS": -10.600476266254647, "YS": -40.81996040997875, "ZS": 0.31480816563420966, "DIST": 42.175091809322836, "LONG": -104.55749999999999, "LAT": 0.4281111111111111, "ELEVATION": 35796956.0, "TYPE": "Satellite"}, {"NAME": "JB-3 3 (ZY 2C)", "CATALOGNUMBER": "28470", "CLASS": "U", "LAUNCHYEAR": "04", "LAUNCHNUMBER": "044", "LAUNCHPIECE": "A  ", "X": 455310.70270116697, "Y": -3919423.8547712634, "Z": -5673600.075046605, "XS": 0.45531070270116697, "YS": -3.9194238547712636, "ZS": -5.673600075046606, "DIST": 6.910783530173197, "LONG": -83.37377777777779, "LAT": -55.34875, "ELEVATION": 547081.0625, "TYPE": "Satellite"}, {"NAME": "NAVSTAR 56 (USA 180)", "CATALOGNUMBER": "28474", "CLASS": "U", "LAUNCHYEAR": "04", "LAUNCHNUMBER": "045", "LAUNCHPIECE": "A  ", "X": 15335497.737053322, "Y": -50386.22149281538, "Z": 22204415.060468454, "XS": 15.335497737053322, "YS": -0.050386221492815374, "ZS": 22.204415060468452, "DIST": 26.985479017279683, "LONG": -0.18824999999999995, "LAT": 55.41138888888889, "ELEVATION": 20621820.0, "TYPE": "Satellite"}, {"NAME": "SWIFT", "CATALOGNUMBER": "28485", "CLASS": "U", "LAUNCHYEAR": "04", "LAUNCHNUMBER": "047", "LAUNCHPIECE": "A  ", "X": -799046.9955174087, "Y": 6490234.12357458, "Z": -2303529.152228532, "XS": -0.7990469955174087, "YS": 6.49023412357458, "ZS": -2.3035291522285317, "DIST": 6.933098992155239, "LONG": 97.01866666666666, "LAT": -19.51661111111111, "ELEVATION": 557332.125, "TYPE": "Satellite"}, {"NAME": "HELIOS 2A", "CATALOGNUMBER": "28492", "CLASS": "U", "LAUNCHYEAR": "04", "LAUNCHNUMBER": "049", "LAUNCHPIECE": "A  ", "X": -2034364.6960994157, "Y": -2874689.9916366264, "Z": -6031459.913255663, "XS": -2.0343646960994155, "YS": -2.8746899916366266, "ZS": -6.031459913255663, "DIST": 6.9843389773092674, "LONG": -125.28633333333333, "LAT": -59.872166666666665, "ELEVATION": 622167.625, "TYPE": "Satellite"}, {"NAME": "NANOSAT-1", "CATALOGNUMBER": "28493", "CLASS": "U", "LAUNCHYEAR": "04", "LAUNCHNUMBER": "049", "LAUNCHPIECE": "B  ", "X": 924415.0417053088, "Y": -875419.5447567819, "Z": 6904786.903995596, "XS": 0.9244150417053089, "YS": -0.8754195447567819, "ZS": 6.904786903995596, "DIST": 7.021181149796827, "LONG": -43.44066666666667, "LAT": 79.61477777777777, "ELEVATION": 663728.6875, "TYPE": "Satellite"}, {"NAME": "COSMOS 2414", "CATALOGNUMBER": "28521", "CLASS": "U", "LAUNCHYEAR": "05", "LAUNCHNUMBER": "002", "LAUNCHPIECE": "A  ", "X": 6226734.752499863, "Y": -2183452.5833225576, "Z": 3212508.7286456246, "XS": 6.226734752499863, "YS": -2.1834525833225578, "ZS": 3.2125087286456244, "DIST": 7.338930657339106, "LONG": -19.32361111111111, "LAT": 26.09122222222222, "ELEVATION": 964905.0, "TYPE": "Satellite"}, {"NAME": "NSS-10 (AMC-12)", "CATALOGNUMBER": "28526", "CLASS": "U", "LAUNCHYEAR": "05", "LAUNCHNUMBER": "003", "LAUNCHPIECE": "A  ", "X": 3794347.0274694003, "Y": -41970352.08938869, "Z": -808726.7267423122, "XS": 3.7943470274694002, "YS": -41.97035208938869, "ZS": -0.8087267267423122, "DIST": 42.149277132480776, "LONG": -84.83419444444444, "LAT": -1.1005277777777778, "ELEVATION": 35771148.0, "TYPE": "Satellite"}, {"NAME": "XTAR-EUR", "CATALOGNUMBER": "28542", "CLASS": "U", "LAUNCHYEAR": "05", "LAUNCHNUMBER": "005", "LAUNCHPIECE": "A  ", "X": 2504574.0648390455, "Y": 42092662.211138315, "Z": 801046.3581637919, "XS": 2.5045740648390455, "YS": 42.09266221113832, "ZS": 0.801046358163792, "DIST": 42.17471729051878, "LONG": 86.59483333333333, "LAT": 1.0894166666666667, "ELEVATION": 35796588.0, "TYPE": "Satellite"}, {"NAME": "XM-3 (RHYTHM)", "CATALOGNUMBER": "28626", "CLASS": "U", "LAUNCHYEAR": "05", "LAUNCHNUMBER": "008", "LAUNCHPIECE": "A  ", "X": -11863160.720065856, "Y": -40450738.144223616, "Z": 9861.096622267778, "XS": -11.863160720065856, "YS": -40.450738144223614, "ZS": 0.009861096622267779, "DIST": 42.154440998830566, "LONG": -106.34505555555555, "LAT": 0.013416666666666665, "ELEVATION": 35776304.0, "TYPE": "Satellite"}, {"NAME": "INMARSAT 4-F1", "CATALOGNUMBER": "28628", "CLASS": "U", "LAUNCHYEAR": "05", "LAUNCHNUMBER": "009", "LAUNCHPIECE": "A  ", "X": 1410827.9231341833, "Y": 42086143.65322078, "Z": 869876.4759303577, "XS": 1.4108279231341834, "YS": 42.08614365322078, "ZS": 0.8698764759303577, "DIST": 42.118767884538215, "LONG": 88.08002777777777, "LAT": 1.184611111111111, "ELEVATION": 35740640.0, "TYPE": "Satellite"}, {"NAME": "IRS-P5 (CARTOSAT-1)", "CATALOGNUMBER": "28649", "CLASS": "U", "LAUNCHYEAR": "05", "LAUNCHNUMBER": "017", "LAUNCHPIECE": "A  ", "X": -5392846.5577625455, "Y": 4368634.338726319, "Z": 891909.1249788705, "XS": -5.392846557762546, "YS": 4.368634338726319, "ZS": 0.8919091249788705, "DIST": 6.997375355680918, "LONG": 140.98977777777776, "LAT": 7.3675, "ELEVATION": 619587.3125, "TYPE": "Satellite"}, {"NAME": "NOAA 18", "CATALOGNUMBER": "28654", "CLASS": "U", "LAUNCHYEAR": "05", "LAUNCHNUMBER": "018", "LAUNCHPIECE": "A  ", "X": 6297382.138203029, "Y": -3056735.310542942, "Z": 1808834.0786618392, "XS": 6.297382138203028, "YS": -3.0567353105429422, "ZS": 1.8088340786618393, "DIST": 7.229974638780348, "LONG": -25.89183333333333, "LAT": 14.570888888888888, "ELEVATION": 853181.5, "TYPE": "Satellite"}, {"NAME": "DIRECTV 8", "CATALOGNUMBER": "28659", "CLASS": "U", "LAUNCHYEAR": "05", "LAUNCHNUMBER": "019", "LAUNCHPIECE": "A  ", "X": -6665566.894475479, "Y": -41650857.929168925, "Z": 453033.8965788056, "XS": -6.665566894475479, "YS": -41.65085792916892, "ZS": 0.4530338965788056, "DIST": 42.18327853512563, "LONG": -99.09219444444444, "LAT": 0.6159722222222221, "ELEVATION": 35805144.0, "TYPE": "Satellite"}, {"NAME": "GALAXY 28 (G-28)", "CATALOGNUMBER": "28702", "CLASS": "U", "LAUNCHYEAR": "05", "LAUNCHNUMBER": "022", "LAUNCHPIECE": "A  ", "X": -17337829.66639582, "Y": -38437884.46291966, "Z": 59674.66289808359, "XS": -17.33782966639582, "YS": -38.43788446291966, "ZS": 0.05967466289808359, "DIST": 42.16722495719997, "LONG": -114.27827777777777, "LAT": 0.08116666666666666, "ELEVATION": 35789088.0, "TYPE": "Satellite"}, {"NAME": "SJ-7", "CATALOGNUMBER": "28737", "CLASS": "U", "LAUNCHYEAR": "05", "LAUNCHNUMBER": "024", "LAUNCHPIECE": "A  ", "X": -23221.700977344284, "Y": -5098772.126830452, "Z": -4714816.99089914, "XS": -0.023221700977344283, "YS": -5.098772126830452, "ZS": -4.71481699089914, "DIST": 6.944603351265689, "LONG": -90.26094444444445, "LAT": -42.93511111111111, "ELEVATION": 576347.0, "TYPE": "Satellite"}, {"NAME": "THAICOM 4", "CATALOGNUMBER": "28786", "CLASS": "U", "LAUNCHYEAR": "05", "LAUNCHNUMBER": "028", "LAUNCHPIECE": "A  ", "X": 20318600.17229356, "Y": 36909787.94789585, "Z": 136148.55312838434, "XS": 20.318600172293557, "YS": 36.90978794789585, "ZS": 0.13614855312838434, "DIST": 42.13308077685139, "LONG": 61.1675, "LAT": 0.18533333333333332, "ELEVATION": 35754944.0, "TYPE": "Satellite"}, {"NAME": "GALAXY 14 (G-14)", "CATALOGNUMBER": "28790", "CLASS": "U", "LAUNCHYEAR": "05", "LAUNCHNUMBER": "030", "LAUNCHPIECE": "A  ", "X": 1592748.114699967, "Y": 42131319.97519932, "Z": 1271944.0853074805, "XS": 1.592748114699967, "YS": 42.13131997519932, "ZS": 1.2719440853074806, "DIST": 42.18059756766917, "LONG": 87.835, "LAT": 1.7297500000000001, "ELEVATION": 35802480.0, "TYPE": "Satellite"}, {"NAME": "REIMEI (INDEX)", "CATALOGNUMBER": "28810", "CLASS": "U", "LAUNCHYEAR": "05", "LAUNCHNUMBER": "031", "LAUNCHPIECE": "B  ", "X": 2405791.2352838255, "Y": -96062.30195416656, "Z": -6546462.17135849, "XS": 2.4057912352838255, "YS": -0.09606230195416655, "ZS": -6.54646217135849, "DIST": 6.975186477410689, "LONG": -2.286583333333333, "LAT": -69.92052777777778, "ELEVATION": 615896.125, "TYPE": "Satellite"}, {"NAME": "ANIK F1R", "CATALOGNUMBER": "28868", "CLASS": "U", "LAUNCHYEAR": "05", "LAUNCHNUMBER": "036", "LAUNCHPIECE": "A  ", "X": -9523834.100521926, "Y": -41077860.596939705, "Z": -657601.79293761, "XS": -9.523834100521926, "YS": -41.07786059693971, "ZS": -0.6576017929376099, "DIST": 42.17257980387198, "LONG": -103.05330555555555, "LAT": -0.8943611111111112, "ELEVATION": 35794448.0, "TYPE": "Satellite"}, {"NAME": "NAVSTAR 57 (USA 183)", "CATALOGNUMBER": "28874", "CLASS": "U", "LAUNCHYEAR": "05", "LAUNCHNUMBER": "038", "LAUNCHPIECE": "A  ", "X": -9741072.408541696, "Y": -19612446.785844013, "Z": 15431649.249730445, "XS": -9.741072408541696, "YS": -19.612446785844014, "ZS": 15.431649249730446, "DIST": 26.789407592604988, "LONG": -116.41258333333334, "LAT": 35.215250000000005, "ELEVATION": 20418366.0, "TYPE": "Satellite"}, {"NAME": "SYRACUSE 3A", "CATALOGNUMBER": "28885", "CLASS": "U", "LAUNCHYEAR": "05", "LAUNCHNUMBER": "041", "LAUNCHPIECE": "B  ", "X": 895438.9942606095, "Y": 42142803.12373314, "Z": 1021579.0382677944, "XS": 0.8954389942606095, "YS": 42.14280312373314, "ZS": 1.0215790382677945, "DIST": 42.1646924552949, "LONG": 88.78277777777778, "LAT": 1.3897222222222223, "ELEVATION": 35786568.0, "TYPE": "Satellite"}, {"NAME": "BEIJING 1", "CATALOGNUMBER": "28890", "CLASS": "U", "LAUNCHYEAR": "05", "LAUNCHNUMBER": "043", "LAUNCHPIECE": "A  ", "X": 6315386.340545141, "Y": 3025050.6660960824, "Z": -1005510.8859546568, "XS": 6.315386340545141, "YS": 3.0250506660960825, "ZS": -1.0055108859546567, "DIST": 7.074325996486579, "LONG": 25.594277777777776, "LAT": -8.22036111111111, "ELEVATION": 696622.875, "TYPE": "Satellite"}, {"NAME": "SINAH 1", "CATALOGNUMBER": "28893", "CLASS": "U", "LAUNCHYEAR": "05", "LAUNCHNUMBER": "043", "LAUNCHPIECE": "D  ", "X": 831142.9536998076, "Y": 1586490.009703545, "Z": -6833914.4635979505, "XS": 0.8311429536998076, "YS": 1.5864900097035448, "ZS": -6.83391446359795, "DIST": 7.064710613758164, "LONG": 62.350500000000004, "LAT": -75.39905555555556, "ELEVATION": 706589.5, "TYPE": "Satellite"}, {"NAME": "CUBESAT XI-V", "CATALOGNUMBER": "28895", "CLASS": "U", "LAUNCHYEAR": "05", "LAUNCHNUMBER": "043", "LAUNCHPIECE": "F  ", "X": -5769875.458041601, "Y": -3855639.3226463287, "Z": -1252932.367298944, "XS": -5.769875458041601, "YS": -3.855639322646329, "ZS": -1.2529323672989439, "DIST": 7.051755590253589, "LONG": -146.24772222222222, "LAT": -10.295472222222223, "ELEVATION": 674296.5625, "TYPE": "Satellite"}, {"NAME": "INMARSAT 4-F2", "CATALOGNUMBER": "28899", "CLASS": "U", "LAUNCHYEAR": "05", "LAUNCHNUMBER": "044", "LAUNCHPIECE": "A  ", "X": 41939032.15030887, "Y": -3261866.3301390507, "Z": 2334677.9292387045, "XS": 41.93903215030887, "YS": -3.2618663301390507, "ZS": 2.3346779292387043, "DIST": 42.1304273737356, "LONG": -4.447305555555555, "LAT": 3.1799166666666667, "ELEVATION": 35752356.0, "TYPE": "Satellite"}, {"NAME": "SPACEWAY 2", "CATALOGNUMBER": "28903", "CLASS": "U", "LAUNCHYEAR": "05", "LAUNCHNUMBER": "046", "LAUNCHPIECE": "B  ", "X": -4519388.23438113, "Y": -41924607.22710682, "Z": -1281592.050019146, "XS": -4.51938823438113, "YS": -41.92460722710682, "ZS": -1.281592050019146, "DIST": 42.18696527771241, "LONG": -96.15261111111111, "LAT": -1.742611111111111, "ELEVATION": 35808848.0, "TYPE": "Satellite"}, {"NAME": "COSMOS 2416", "CATALOGNUMBER": "28908", "CLASS": "U", "LAUNCHYEAR": "05", "LAUNCHNUMBER": "048", "LAUNCHPIECE": "A  ", "X": -1513640.5844776088, "Y": 2746611.289191028, "Z": -7177069.1733148545, "XS": -1.5136405844776089, "YS": 2.746611289191028, "ZS": -7.177069173314854, "DIST": 7.832324259850053, "LONG": 118.85888888888888, "LAT": -66.51119444444444, "ELEVATION": 1472154.375, "TYPE": "Satellite"}, {"NAME": "METEOSAT-9 (MSG-2)", "CATALOGNUMBER": "28912", "CLASS": "U", "LAUNCHYEAR": "05", "LAUNCHNUMBER": "049", "LAUNCHPIECE": "B  ", "X": 1995004.8956249633, "Y": 41972708.057135284, "Z": 3590504.320010306, "XS": 1.9950048956249633, "YS": 41.972708057135286, "ZS": 3.590504320010306, "DIST": 42.173214099177805, "LONG": 87.27872222222223, "LAT": 4.8888333333333325, "ELEVATION": 35795232.0, "TYPE": "Satellite"}, {"NAME": "EUTELSAT 174A", "CATALOGNUMBER": "28924", "CLASS": "U", "LAUNCHYEAR": "05", "LAUNCHNUMBER": "052", "LAUNCHPIECE": "A  ", "X": -37322050.98626937, "Y": -19687398.379186977, "Z": 534794.5856682222, "XS": -37.32205098626937, "YS": -19.687398379186977, "ZS": 0.5347945856682221, "DIST": 42.19970556782789, "LONG": -152.18833333333333, "LAT": 0.7268611111111111, "ELEVATION": 35821572.0, "TYPE": "Satellite"}, {"NAME": "ECHOSTAR 10", "CATALOGNUMBER": "28935", "CLASS": "U", "LAUNCHYEAR": "06", "LAUNCHNUMBER": "003", "LAUNCHPIECE": "A  ", "X": -13399248.270452866, "Y": -39987237.43730505, "Z": 407820.30872936023, "XS": -13.399248270452865, "YS": -39.98723743730505, "ZS": 0.4078203087293602, "DIST": 42.17446300173668, "LONG": -108.52538888888888, "LAT": 0.5546111111111112, "ELEVATION": 35796328.0, "TYPE": "Satellite"}, {"NAME": "SPAINSAT", "CATALOGNUMBER": "28945", "CLASS": "U", "LAUNCHYEAR": "06", "LAUNCHNUMBER": "007", "LAUNCHPIECE": "A  ", "X": 15328483.103530908, "Y": -39275574.44728804, "Z": 235785.6564999, "XS": 15.328483103530909, "YS": -39.27557444728804, "ZS": 0.23578565649990002, "DIST": 42.161460331628795, "LONG": -68.68027777777777, "LAT": 0.32075, "ELEVATION": 35783324.0, "TYPE": "Satellite"}, {"NAME": "EUTELSAT HOTBIRD 13E", "CATALOGNUMBER": "28946", "CLASS": "U", "LAUNCHYEAR": "06", "LAUNCHNUMBER": "007", "LAUNCHPIECE": "B  ", "X": 17319388.316857394, "Y": 38444928.64359283, "Z": 115731.57225197642, "XS": 17.319388316857395, "YS": 38.444928643592824, "ZS": 0.11573157225197643, "DIST": 42.16618483901355, "LONG": 65.7485, "LAT": 0.15741666666666665, "ELEVATION": 35788048.0, "TYPE": "Satellite"}, {"NAME": "JCSAT-5A", "CATALOGNUMBER": "29045", "CLASS": "U", "LAUNCHYEAR": "06", "LAUNCHNUMBER": "010", "LAUNCHPIECE": "A  ", "X": 15212497.856081296, "Y": 39287147.60407454, "Z": 287541.70686407085, "XS": 15.212497856081296, "YS": 39.28714760407454, "ZS": 0.2875417068640708, "DIST": 42.130544004543836, "LONG": 68.83294444444444, "LAT": 0.3914444444444445, "ELEVATION": 35752408.0, "TYPE": "Satellite"}, {"NAME": "ASTRA 1KR", "CATALOGNUMBER": "29055", "CLASS": "U", "LAUNCHYEAR": "06", "LAUNCHNUMBER": "012", "LAUNCHPIECE": "A  ", "X": 8374302.32709261, "Y": 41332067.104607046, "Z": 503965.4383646565, "XS": 8.374302327092611, "YS": 41.33206710460705, "ZS": 0.5039654383646566, "DIST": 42.1749059485419, "LONG": 78.54633333333334, "LAT": 0.6853611111111111, "ELEVATION": 35796772.0, "TYPE": "Satellite"}, {"NAME": "EROS B", "CATALOGNUMBER": "29079", "CLASS": "U", "LAUNCHYEAR": "06", "LAUNCHNUMBER": "014", "LAUNCHPIECE": "A  ", "X": 6148818.093566212, "Y": 2912629.674790067, "Z": 1274836.6346484236, "XS": 6.148818093566212, "YS": 2.9126296747900673, "ZS": 1.2748366346484237, "DIST": 6.922180582394296, "LONG": 25.346416666666666, "LAT": 10.676916666666665, "ELEVATION": 544772.0625, "TYPE": "Satellite"}, {"NAME": "CLOUDSAT", "CATALOGNUMBER": "29107", "CLASS": "U", "LAUNCHYEAR": "06", "LAUNCHNUMBER": "016", "LAUNCHPIECE": "A  ", "X": 1047401.236445413, "Y": -407295.11165399663, "Z": -6976685.484288562, "XS": 1.047401236445413, "YS": -0.4072951116539966, "ZS": -6.976685484288562, "DIST": 7.066617225007121, "LONG": -21.249194444444445, "LAT": -80.90361111111112, "ELEVATION": 709326.375, "TYPE": "Satellite"}, {"NAME": "CALIPSO", "CATALOGNUMBER": "29108", "CLASS": "U", "LAUNCHYEAR": "06", "LAUNCHNUMBER": "016", "LAUNCHPIECE": "B  ", "X": 2743143.9805353796, "Y": 4072173.7224505916, "Z": 5068803.913304734, "XS": 2.7431439805353794, "YS": 4.072173722450592, "ZS": 5.068803913304734, "DIST": 7.056926443948384, "LONG": 56.034555555555556, "LAT": 46.085638888888894, "ELEVATION": 689845.5625, "TYPE": "Satellite"}, {"NAME": "EWS-G1 (GOES 13)", "CATALOGNUMBER": "29155", "CLASS": "U", "LAUNCHYEAR": "06", "LAUNCHNUMBER": "018", "LAUNCHPIECE": "A  ", "X": 3364766.549644589, "Y": 42009406.005271904, "Z": 808324.0821065125, "XS": 3.364766549644589, "YS": 42.009406005271906, "ZS": 0.8083240821065125, "DIST": 42.15169314121434, "LONG": 85.42063888888889, "LAT": 1.0999166666666667, "ELEVATION": 35773564.0, "TYPE": "Satellite"}, {"NAME": "EUTELSAT 113 WEST A", "CATALOGNUMBER": "29162", "CLASS": "U", "LAUNCHYEAR": "06", "LAUNCHNUMBER": "020", "LAUNCHPIECE": "A  ", "X": -8196626.112500065, "Y": -41374615.15749709, "Z": 447515.12845729594, "XS": -8.196626112500065, "YS": -41.3746151574971, "ZS": 0.44751512845729596, "DIST": 42.18108259456251, "LONG": -101.20563888888888, "LAT": 0.6084999999999999, "ELEVATION": 35802948.0, "TYPE": "Satellite"}, {"NAME": "RESURS-DK 1", "CATALOGNUMBER": "29228", "CLASS": "U", "LAUNCHYEAR": "06", "LAUNCHNUMBER": "021", "LAUNCHPIECE": "A  ", "X": -2864791.6856693407, "Y": -4089645.673149956, "Z": 4803564.524075714, "XS": -2.8647916856693407, "YS": -4.089645673149956, "ZS": 4.803564524075714, "DIST": 6.928669805319999, "LONG": -125.01119444444444, "LAT": 44.06769444444445, "ELEVATION": 560835.3125, "TYPE": "Satellite"}, {"NAME": "GALAXY 16 (G-16)", "CATALOGNUMBER": "29236", "CLASS": "U", "LAUNCHYEAR": "06", "LAUNCHNUMBER": "023", "LAUNCHPIECE": "A  ", "X": -10565587.108050866, "Y": -40824943.467096746, "Z": 453039.68908967706, "XS": -10.565587108050867, "YS": -40.824943467096745, "ZS": 0.45303968908967707, "DIST": 42.17241853379228, "LONG": -104.50991666666667, "LAT": 0.6161388888888889, "ELEVATION": 35794284.0, "TYPE": "Satellite"}, {"NAME": "GENESIS 1", "CATALOGNUMBER": "29252", "CLASS": "U", "LAUNCHYEAR": "06", "LAUNCHNUMBER": "029", "LAUNCHPIECE": "A  ", "X": 790955.4793352992, "Y": 2948472.2208611313, "Z": 6169112.610918362, "XS": 0.7909554793352992, "YS": 2.9484722208611314, "ZS": 6.169112610918361, "DIST": 6.88309882347132, "LONG": 74.98341666666667, "LAT": 63.813111111111105, "ELEVATION": 522155.40625, "TYPE": "Satellite"}, {"NAME": "ARIRANG-2 (KOMPSAT-2)", "CATALOGNUMBER": "29268", "CLASS": "U", "LAUNCHYEAR": "06", "LAUNCHNUMBER": "031", "LAUNCHPIECE": "A  ", "X": -4025702.9717144603, "Y": 4407067.91021919, "Z": -3796441.2996282545, "XS": -4.02570297171446, "YS": 4.407067910219189, "ZS": -3.7964412996282544, "DIST": 7.0740015919758905, "LONG": 132.4106111111111, "LAT": -32.61475, "ELEVATION": 702043.0, "TYPE": "Satellite"}, {"NAME": "EUTELSAT HOTBIRD 13B", "CATALOGNUMBER": "29270", "CLASS": "U", "LAUNCHYEAR": "06", "LAUNCHNUMBER": "032", "LAUNCHPIECE": "A  ", "X": 1282665.480795968, "Y": 42155392.11210503, "Z": 266607.22443405405, "XS": 1.282665480795968, "YS": 42.15539211210503, "ZS": 0.26660722443405405, "DIST": 42.17574414605002, "LONG": 88.25719444444445, "LAT": 0.3625555555555555, "ELEVATION": 35797608.0, "TYPE": "Satellite"}, {"NAME": "JCSAT-3A", "CATALOGNUMBER": "29272", "CLASS": "U", "LAUNCHYEAR": "06", "LAUNCHNUMBER": "033", "LAUNCHPIECE": "A  ", "X": 18692818.0662998, "Y": 37751610.3474796, "Z": 371744.9325347437, "XS": 18.6928180662998, "YS": 37.7516103474796, "ZS": 0.37174493253474367, "DIST": 42.12770733593959, "LONG": 63.657555555555554, "LAT": 0.5061111111111111, "ELEVATION": 35749572.0, "TYPE": "Satellite"}, {"NAME": "SYRACUSE 3B", "CATALOGNUMBER": "29273", "CLASS": "U", "LAUNCHYEAR": "06", "LAUNCHNUMBER": "033", "LAUNCHPIECE": "B  ", "X": 41329826.23688278, "Y": 8400489.631418886, "Z": 110996.61594255528, "XS": 41.32982623688278, "YS": 8.400489631418885, "ZS": 0.11099661594255528, "DIST": 42.175052851979345, "LONG": 11.489138888888888, "LAT": 0.15094444444444444, "ELEVATION": 35796916.0, "TYPE": "Satellite"}, {"NAME": "KOREASAT 5 (MUGUNGWHA 5)", "CATALOGNUMBER": "29349", "CLASS": "U", "LAUNCHYEAR": "06", "LAUNCHNUMBER": "034", "LAUNCHPIECE": "A  ", "X": 22206078.77441019, "Y": 35807450.90759335, "Z": 502554.2353588484, "XS": 22.206078774410187, "YS": 35.80745090759335, "ZS": 0.5025542353588484, "DIST": 42.13710996015858, "LONG": 58.19477777777777, "LAT": 0.6840555555555555, "ELEVATION": 35758976.0, "TYPE": "Satellite"}, {"NAME": "HINODE (SOLAR-B)", "CATALOGNUMBER": "29479", "CLASS": "U", "LAUNCHYEAR": "06", "LAUNCHNUMBER": "041", "LAUNCHPIECE": "A  ", "X": -982747.3947175364, "Y": 6987277.205659604, "Z": -320006.2953350436, "XS": -0.9827473947175364, "YS": 6.987277205659604, "ZS": -0.32000629533504354, "DIST": 7.06330228856223, "LONG": 98.00602777777777, "LAT": -2.6124722222222223, "ELEVATION": 685209.375, "TYPE": "Satellite"}, {"NAME": "NAVSTAR 58 (USA 190)", "CATALOGNUMBER": "29486", "CLASS": "U", "LAUNCHYEAR": "06", "LAUNCHNUMBER": "042", "LAUNCHPIECE": "A  ", "X": 11868845.49247684, "Y": 16654071.545335619, "Z": -16873787.633743037, "XS": 11.86884549247684, "YS": 16.65407154533562, "ZS": -16.873787633743035, "DIST": 26.513247659804044, "LONG": 54.523694444444445, "LAT": -39.57138888888889, "ELEVATION": 20143772.0, "TYPE": "Satellite"}, {"NAME": "DIRECTV 9S", "CATALOGNUMBER": "29494", "CLASS": "U", "LAUNCHYEAR": "06", "LAUNCHNUMBER": "043", "LAUNCHPIECE": "A  ", "X": -11220190.260106338, "Y": -40650725.55069635, "Z": 581658.8816887203, "XS": -11.220190260106339, "YS": -40.65072555069635, "ZS": 0.5816588816887203, "DIST": 42.17478493514424, "LONG": -105.43027777777777, "LAT": 0.7910277777777778, "ELEVATION": 35796652.0, "TYPE": "Satellite"}, {"NAME": "OPTUS D1", "CATALOGNUMBER": "29495", "CLASS": "U", "LAUNCHYEAR": "06", "LAUNCHNUMBER": "043", "LAUNCHPIECE": "B  ", "X": -19568941.219461054, "Y": 37303611.45270901, "Z": 108620.50345726521, "XS": -19.568941219461053, "YS": 37.30361145270901, "ZS": 0.1086205034572652, "DIST": 42.124988857911596, "LONG": 117.68086111111111, "LAT": 0.14788888888888888, "ELEVATION": 35746852.0, "TYPE": "Satellite"}, {"NAME": "SHIJIAN-6 02A (SJ-6 02A)", "CATALOGNUMBER": "29505", "CLASS": "U", "LAUNCHYEAR": "06", "LAUNCHNUMBER": "046", "LAUNCHPIECE": "A  ", "X": 2116331.890326323, "Y": -6634064.669577522, "Z": 21054.427236619267, "XS": 2.116331890326323, "YS": -6.634064669577522, "ZS": 0.021054427236619266, "DIST": 6.963484616128276, "LONG": -72.30680555555556, "LAT": 0.17430555555555555, "ELEVATION": 585347.8125, "TYPE": "Satellite"}, {"NAME": "SHIJIAN-6 02B (SJ-6 02B)", "CATALOGNUMBER": "29506", "CLASS": "U", "LAUNCHYEAR": "06", "LAUNCHNUMBER": "046", "LAUNCHPIECE": "B  ", "X": 1818231.817871111, "Y": -2985768.28418111, "Z": -6030224.599353401, "XS": 1.818231817871111, "YS": -2.98576828418111, "ZS": -6.030224599353401, "DIST": 6.970250204188339, "LONG": -58.66, "LAT": -60.05061111111112, "ELEVATION": 608136.75, "TYPE": "Satellite"}, {"NAME": "XM-4 (BLUES)", "CATALOGNUMBER": "29520", "CLASS": "U", "LAUNCHYEAR": "06", "LAUNCHNUMBER": "049", "LAUNCHPIECE": "A  ", "X": 2498241.484467914, "Y": -42063621.975069806, "Z": 303292.32696565124, "XS": 2.498241484467914, "YS": -42.06362197506981, "ZS": 0.3032923269656512, "DIST": 42.13883589293715, "LONG": -86.60108333333332, "LAT": 0.4128055555555556, "ELEVATION": 35760700.0, "TYPE": "Satellite"}, {"NAME": "DMSP 5D-3 F17 (USA 191)", "CATALOGNUMBER": "29522", "CLASS": "U", "LAUNCHYEAR": "06", "LAUNCHNUMBER": "050", "LAUNCHPIECE": "A  ", "X": 456948.3136186838, "Y": 4081574.24524299, "Z": -5959358.02422351, "XS": 0.45694831361868377, "YS": 4.08157424524299, "ZS": -5.95935802422351, "DIST": 7.237540890497751, "LONG": 83.6121111111111, "LAT": -55.58411111111111, "ELEVATION": 873922.0, "TYPE": "Satellite"}, {"NAME": "BADR-4", "CATALOGNUMBER": "29526", "CLASS": "U", "LAUNCHYEAR": "06", "LAUNCHNUMBER": "051", "LAUNCHPIECE": "A  ", "X": 5513056.437270408, "Y": 41813004.35184963, "Z": 318737.48152280605, "XS": 5.513056437270407, "YS": 41.81300435184963, "ZS": 0.31873748152280607, "DIST": 42.176091779472074, "LONG": 82.4888611111111, "LAT": 0.43344444444444447, "ELEVATION": 35797956.0, "TYPE": "Satellite"}, {"NAME": "NAVSTAR 59 (USA 192)", "CATALOGNUMBER": "29601", "CLASS": "U", "LAUNCHYEAR": "06", "LAUNCHNUMBER": "052", "LAUNCHPIECE": "A  ", "X": -24570678.64587264, "Y": 5921252.921637319, "Z": 7710095.094126157, "XS": -24.57067864587264, "YS": 5.921252921637319, "ZS": 7.7100950941261575, "DIST": 26.42394844910973, "LONG": 166.4507222222222, "LAT": 16.990694444444447, "ELEVATION": 20047632.0, "TYPE": "Satellite"}, {"NAME": "WILDBLUE-1", "CATALOGNUMBER": "29643", "CLASS": "U", "LAUNCHYEAR": "06", "LAUNCHNUMBER": "054", "LAUNCHPIECE": "A  ", "X": -9252649.541026333, "Y": -41145688.92338285, "Z": 326323.46804918005, "XS": -9.252649541026333, "YS": -41.14568892338285, "ZS": 0.32632346804918005, "DIST": 42.174467720584744, "LONG": -102.67358333333334, "LAT": 0.44377777777777777, "ELEVATION": 35796332.0, "TYPE": "Satellite"}, {"NAME": "AMC-18", "CATALOGNUMBER": "29644", "CLASS": "U", "LAUNCHYEAR": "06", "LAUNCHNUMBER": "054", "LAUNCHPIECE": "B  ", "X": -13384425.265742391, "Y": -39980443.47483962, "Z": 410020.0201479524, "XS": -13.384425265742392, "YS": -39.98044347483962, "ZS": 0.4100200201479524, "DIST": 42.1633349790551, "LONG": -108.50922222222222, "LAT": 0.5577500000000001, "ELEVATION": 35785200.0, "TYPE": "Satellite"}, {"NAME": "LAPAN-TUBSAT", "CATALOGNUMBER": "29709", "CLASS": "U", "LAUNCHYEAR": "07", "LAUNCHNUMBER": "001", "LAUNCHPIECE": "A  ", "X": 2733484.5635605124, "Y": 4038874.938870164, "Z": 5028845.289077817, "XS": 2.7334845635605123, "YS": 4.038874938870164, "ZS": 5.028845289077817, "DIST": 7.005264703959247, "LONG": 55.91011111111111, "LAT": 46.053416666666664, "ELEVATION": 638171.5625, "TYPE": "Satellite"}, {"NAME": "CARTOSAT-2 (IRS-P7)", "CATALOGNUMBER": "29710", "CLASS": "U", "LAUNCHYEAR": "07", "LAUNCHNUMBER": "001", "LAUNCHPIECE": "B  ", "X": 5160231.297896087, "Y": 2635700.95607195, "Z": 2564830.6003919626, "XS": 5.160231297896087, "YS": 2.63570095607195, "ZS": 2.5648306003919625, "DIST": 6.336660207580325, "LONG": 27.05666666666667, "LAT": 24.01975, "ELEVATION": -37958.41015625, "TYPE": "Satellite"},